{
"type": "FeatureCollection",
"name": "chilm",
"crs": { "type": "name", "properties": { "name": "urn:ogc:def:crs:OGC::CRS84" } },
"features": [
{ "type": "Feature", "properties": { "address": "211 N Clinton St", "architect": "Frost & Granger", "date_built": "1909-11", "id": "L- 16", "landmark": "1/11/2006", "name": "Chicago & North Western Railway Powerhouse", "latitude": -87.64090957000001, "longitude": 41.88618882, "Shape_Leng": 0.00358355514, "Shape_Area": 3.4012e-07 }, "geometry": { "type": "Point", "coordinates": [ -87.64093696601573, 41.886113733306033 ] } },
{ "type": "Feature", "properties": { "address": "211 N Clinton St", "architect": "Frost & Granger", "date_built": "1909-11", "id": "L- 16", "landmark": "1/11/2006", "name": "Chicago & North Western Railway Powerhouse", "latitude": -87.64090957000001, "longitude": 41.88618882, "Shape_Leng": 0.00358355514, "Shape_Area": 3.4012e-07 }, "geometry": { "type": "Point", "coordinates": [ -87.640754249726243, 41.886614406976101 ] } },
{ "type": "Feature", "properties": { "address": "18-28 S Wabash Av", "architect": "Wheelock & Thomas and John M. Van Osdel", "date_built": "1875-77", "id": "L-109", "landmark": "11/13/1996", "name": "Haskell-Barker-Atwater Buildings", "latitude": -87.62665808, "longitude": 41.88136175, "Shape_Leng": 0.00192464345, "Shape_Area": 2.0941e-07 }, "geometry": { "type": "Point", "coordinates": [ -87.626658079474552, 41.881361755058592 ] } },
{ "type": "Feature", "properties": { "address": "5804 W Midway Park", "architect": "Frederick Schock", "date_built": "1886", "id": "L-222", "landmark": "1/20/1999", "name": "F. R. Schock House", "latitude": -87.77022252, "longitude": 41.88932169, "Shape_Leng": 0.00144579821, "Shape_Area": 1.2817e-07 }, "geometry": { "type": "Point", "coordinates": [ -87.770222522671048, 41.889321693656285 ] } },
{ "type": "Feature", "properties": { "address": "SE corner of Lake St & Wacker Dr", "architect": null, "date_built": "1831", "id": "L-188", "landmark": "11/6/2002", "name": "Site of the Sauganash Hotel/Wigwam", "latitude": -87.63647275, "longitude": 41.8853654, "Shape_Leng": 0.0020323853, "Shape_Area": 2.5794e-07 }, "geometry": { "type": "Point", "coordinates": [ -87.63647274831898, 41.885365398149204 ] } },
{ "type": "Feature", "properties": { "address": "Lincoln Park at Dearborn Parkway", "architect": "A Saint-Gaudens,Sculptor & S White,Architect", "date_built": "1887", "id": "L-107", "landmark": "12/12/2001", "name": "Abraham Lincoln Monument (\"Standing Lincoln\")", "latitude": -87.63025542, "longitude": 41.91260406, "Shape_Leng": 0.00062924106, "Shape_Area": 2.474e-08 }, "geometry": { "type": "Point", "coordinates": [ -87.630255419397116, 41.912604056199065 ] } },
{ "type": "Feature", "properties": { "address": "1301 N Humboldt Blvd", "architect": "Richard E. Schmidt,Garden & Martin w/ Jens Jenson", "date_built": "1907", "id": "L-116", "landmark": "11/13/1996", "name": "Humboldt Park Boathouse Pavilion", "latitude": -87.70080444, "longitude": 41.90562148, "Shape_Leng": 0.00501886644, "Shape_Area": 1.04316e-06 }, "geometry": { "type": "Point", "coordinates": [ -87.700804441556684, 41.905621480058279 ] } },
{ "type": "Feature", "properties": { "address": "800 S Halsted St", "architect": "Unknown, Dining Hall 1905: Pond & Pond", "date_built": "1856", "id": "L- 43", "landmark": "6/12/1974", "name": "Jane Addams' Hull House and Dining Hall", "latitude": -87.64835752, "longitude": 41.87150889, "Shape_Leng": 0.00657156352, "Shape_Area": 1.87136e-06 }, "geometry": { "type": "Point", "coordinates": [ -87.648357515442441, 41.871508892053789 ] } },
{ "type": "Feature", "properties": { "address": "2840-58 W Walnut St", "architect": "Frank Llyod Wright", "date_built": "1895", "id": "L-203", "landmark": "3/2/1994", "name": "Waller Apartments", "latitude": -87.69836233, "longitude": 41.88563167, "Shape_Leng": 0.00173892608, "Shape_Area": 8.279e-08 }, "geometry": { "type": "Point", "coordinates": [ -87.698362334512581, 41.885631668720144 ] } },
{ "type": "Feature", "properties": { "address": "1401 S Michigan Av", "architect": "Charles F. Hermann", "date_built": "1905", "id": "L-229", "landmark": "10/1/2003", "name": "(Former) Engine Company 104, Truck 3", "latitude": -87.62361007, "longitude": 41.86395764, "Shape_Leng": 0.001467069, "Shape_Area": 8.26e-08 }, "geometry": { "type": "Point", "coordinates": [ -87.623610074598616, 41.863957640687978 ] } },
{ "type": "Feature", "properties": { "address": "664 N Michigan Ave", "architect": "Philip B. Maher", "date_built": "1927", "id": "L- 07", "landmark": "3/10/2004", "name": "Farwell Building", "latitude": -87.62462078, "longitude": 41.89431494, "Shape_Leng": 0.00088019262, "Shape_Area": 4.535e-08 }, "geometry": { "type": "Point", "coordinates": [ -87.624620782351485, 41.894314942025787 ] } },
{ "type": "Feature", "properties": { "address": "739 E 35th St", "architect": "William W. Boyington (1866 sect)", "date_built": "1864-1923", "id": "L- 26", "landmark": "4/16/1996", "name": "Soldiers' Home", "latitude": -87.60747387000001, "longitude": 41.83075107, "Shape_Leng": 0.00311846398, "Shape_Area": 5.0992e-07 }, "geometry": { "type": "Point", "coordinates": [ -87.607473868483297, 41.830751074853744 ] } },
{ "type": "Feature", "properties": { "address": "2016-20 S Calumet Av", "architect": "Otis L. Wheelock", "date_built": "1870", "id": "L-210", "landmark": "2/5/1998", "name": "Wheeler-Kohn House", "latitude": -87.61953359, "longitude": 41.85491185, "Shape_Leng": 0.00185374634, "Shape_Area": 1.79e-07 }, "geometry": { "type": "Point", "coordinates": [ -87.619533594285969, 41.854911849506024 ] } },
{ "type": "Feature", "properties": { "address": "601-23 N State St/4-10 E Ohio St/3-7 E Ontario St", "architect": "Parfitt Brothers, with Bauer & Hill", "date_built": "1894", "id": "L-196", "landmark": "2/26/1997", "name": "Tree Studios, Annexes and Courtyard", "latitude": -87.62773715, "longitude": 41.89287853, "Shape_Leng": 0.00271808989, "Shape_Area": 2.7018e-07 }, "geometry": { "type": "Point", "coordinates": [ -87.627737146977793, 41.892878525924679 ] } },
{ "type": "Feature", "properties": { "address": "2325-33 N Clark St", "architect": "George Kingsley", "date_built": "1921-22", "id": "L-173", "landmark": "9/1/1999", "name": "Reebie Storage Warehouse", "latitude": -87.63944577, "longitude": 41.92471948, "Shape_Leng": 0.00227400451, "Shape_Area": 2.5425e-07 }, "geometry": { "type": "Point", "coordinates": [ -87.639445770174859, 41.92471947579709 ] } },
{ "type": "Feature", "properties": { "address": "3831 S Michigan Av", "architect": "Gustav Hallburg remod:1940;Hin Bredendieck&Lerner", "date_built": "1892-93", "id": "L-190", "landmark": "6/16/1994", "name": "South Side Community Art Center", "latitude": -87.62264066, "longitude": 41.82458595, "Shape_Leng": 0.00140894834, "Shape_Area": 9.076e-08 }, "geometry": { "type": "Point", "coordinates": [ -87.622640657313681, 41.824585948202518 ] } },
{ "type": "Feature", "properties": { "address": "233 W Jackson Blvd", "architect": "Holabird & Roche", "date_built": "1910", "id": "L- 56", "landmark": "1/14/1997", "name": "Brooks Building", "latitude": -87.63477822, "longitude": 41.87787644, "Shape_Leng": 0.00167416391, "Shape_Area": 1.544e-07 }, "geometry": { "type": "Point", "coordinates": [ -87.634778221057488, 41.877876444519153 ] } },
{ "type": "Feature", "properties": { "address": "6231 N Canfield Av", "architect": "Add. c. 1868-75 Architect Unknown", "date_built": "1854", "id": "L-212", "landmark": "7/31/1990", "name": "John Wingert House", "latitude": -87.82160659, "longitude": 41.99430885, "Shape_Leng": 0.00148015299, "Shape_Area": 1.2494e-07 }, "geometry": { "type": "Point", "coordinates": [ -87.821606590816401, 41.994308849206917 ] } },
{ "type": "Feature", "properties": { "address": "35 E Wacker Dr", "architect": "Joachim G. Giaver & Frederick P. Dinkelberg", "date_built": "1925-27", "id": "L-195", "landmark": "2/9/1994", "name": "35 East Wacker Building", "latitude": -87.62678477, "longitude": 41.88651836, "Shape_Leng": 0.00195240131, "Shape_Area": 2.2739e-07 }, "geometry": { "type": "Point", "coordinates": [ -87.626784765848655, 41.886518364507673 ] } },
{ "type": "Feature", "properties": { "address": "7121 S Paxton Av", "architect": "John S Van Bergan", "date_built": "1915", "id": "L-147", "landmark": "12/1/1993", "name": "Allan Miller House", "latitude": -87.57101082, "longitude": 41.7654723, "Shape_Leng": 0.00132641956, "Shape_Area": 9.413e-08 }, "geometry": { "type": "Point", "coordinates": [ -87.571010820127896, 41.765472301646916 ] } },
{ "type": "Feature", "properties": { "address": "815-815 W 63RD ST", "architect": null, "date_built": "1920", "id": "L-267", "landmark": null, "name": "Chicago City  Bank & Trust Co", "latitude": -87.64552885000001, "longitude": 41.77939885, "Shape_Leng": 0.00147726989, "Shape_Area": 1.1825e-07 }, "geometry": { "type": "Point", "coordinates": [ -87.645528850265251, 41.779398852883418 ] } },
{ "type": "Feature", "properties": { "address": "4122 S Ellis Av", "architect": "Adler & Sullivan", "date_built": "1886", "id": "L- 89", "landmark": "10/2/1991", "name": "Mathilde Eliel House", "latitude": -87.602788, "longitude": 41.81925575, "Shape_Leng": 0.00146076542, "Shape_Area": 4.98e-08 }, "geometry": { "type": "Point", "coordinates": [ -87.602787999067658, 41.819255751005073 ] } },
{ "type": "Feature", "properties": { "address": "92nd St @ South Chicago & Exchange Ave", "architect": "Richard Henry Park", "date_built": "1892", "id": "L- 06", "landmark": "3/10/2004", "name": "Drake Fountain", "latitude": -87.55275866, "longitude": 41.7280941, "Shape_Leng": 0.00084540472, "Shape_Area": 3.322e-08 }, "geometry": { "type": "Point", "coordinates": [ -87.552758661290454, 41.728094099763268 ] } },
{ "type": "Feature", "properties": { "address": "175 N State St", "architect": "Rapp and Rapp", "date_built": "1921", "id": "L- 69", "landmark": "1/28/1983", "name": "Chicago Theater", "latitude": -87.62722322, "longitude": 41.88538851, "Shape_Leng": 0.00260487274, "Shape_Area": 3.1384e-07 }, "geometry": { "type": "Point", "coordinates": [ -87.627223223332351, 41.885388506547294 ] } },
{ "type": "Feature", "properties": { "address": "1020 W Sheridan Rd", "architect": "Joseph W McCarthy", "date_built": "1930-31", "id": "L- 36", "landmark": "12/13/2006", "name": "Mundelein College Skyscraper Building", "latitude": -87.65655162, "longitude": 41.99867594, "Shape_Leng": 0.00326735453, "Shape_Area": 6.5257e-07 }, "geometry": { "type": "Point", "coordinates": [ -87.656551622747727, 41.99867594093714 ] } },
{ "type": "Feature", "properties": { "address": "5757 S Woodlawn Av", "architect": "Frank Lloyd Wright", "date_built": "1909", "id": "L-176", "landmark": "9/15/1971", "name": "Frederick C. Robie House", "latitude": -87.59597028, "longitude": 41.78992032, "Shape_Leng": 0.00213159263, "Shape_Area": 2.6784e-07 }, "geometry": { "type": "Point", "coordinates": [ -87.595970279433914, 41.789920324792583 ] } },
{ "type": "Feature", "properties": { "address": "2216 S Wentworth Av", "architect": "Michealsen & Rognstad", "date_built": "1926-27", "id": "L-159", "landmark": "12/1/1993", "name": "On Leong Merchants Association", "latitude": -87.63231507, "longitude": 41.8523735, "Shape_Leng": 0.00128161023, "Shape_Area": 1.0055e-07 }, "geometry": { "type": "Point", "coordinates": [ -87.632315073894432, 41.852373500875601 ] } },
{ "type": "Feature", "properties": { "address": "1209 N State Pkwy", "architect": "Andrew Rebori & Edgar Miller", "date_built": "1936", "id": "L- 81", "landmark": "7/31/1996", "name": "Fisher Studio Houses", "latitude": -87.6282942, "longitude": 41.90427607, "Shape_Leng": 0.00132642846, "Shape_Area": 6.093e-08 }, "geometry": { "type": "Point", "coordinates": [ -87.628294195685086, 41.904276069806436 ] } },
{ "type": "Feature", "properties": { "address": "1200-08 N Ashland Av / 1600-12 W Division St", "architect": "Karl M. Vitzthum", "date_built": null, "id": "L-255", "landmark": "2/6/2008", "name": "Home Bank & Trust Company", "latitude": -87.66796079, "longitude": 41.9036108, "Shape_Leng": 0.00142595321, "Shape_Area": 1.2092e-07 }, "geometry": { "type": "Point", "coordinates": [ -87.667960787157824, 41.903610800719228 ] } },
{ "type": "Feature", "properties": { "address": "32 N State St", "architect": "base:Burham & Root Upper Stor: D.H. Burnham and Co", "date_built": "1890", "id": "L-175", "landmark": "7/11/1975", "name": "Reliance Building", "latitude": -87.62824151, "longitude": 41.88302856, "Shape_Leng": 0.00092329039, "Shape_Area": 4.678e-08 }, "geometry": { "type": "Point", "coordinates": [ -87.628241508200915, 41.883028555778949 ] } },
{ "type": "Feature", "properties": { "address": "1060 W Addison St", "architect": "Zachary T. & Charles G. Davis", "date_built": "1914", "id": "L- 04", "landmark": "2/11/2004", "name": "Wrigley Field", "latitude": -87.65554259, "longitude": 41.94814483, "Shape_Leng": 0.00752451802, "Shape_Area": 3.54273e-06 }, "geometry": { "type": "Point", "coordinates": [ -87.655542586850729, 41.948144831688438 ] } },
{ "type": "Feature", "properties": { "address": "11 S LaSalle St", "architect": null, "date_built": null, "id": "L-253", "landmark": "12/12/2007", "name": "Roanoke Building and Tower", "latitude": -87.63195358, "longitude": 41.88170712, "Shape_Leng": 0.00180058135, "Shape_Area": 1.6542e-07 }, "geometry": { "type": "Point", "coordinates": [ -87.631953581052855, 41.881707117845622 ] } },
{ "type": "Feature", "properties": { "address": "1625 N Damen Av", "architect": "Board of Public Works, add: W. C. Zimmerman", "date_built": "1894,1904", "id": "L-227", "landmark": "10/1/2003", "name": "(Former) Engine Company 35, Truck 28", "latitude": -87.67714161000001, "longitude": 41.91123781, "Shape_Leng": 0.00115222175, "Shape_Area": 5.856e-08 }, "geometry": { "type": "Point", "coordinates": [ -87.677141608183533, 41.911237812284298 ] } },
{ "type": "Feature", "properties": { "address": "2120 S Michigan Av", "architect": "Horatio Wilson", "date_built": "1911", "id": "L- 66", "landmark": "5/16/1990", "name": "Chess Records Office and Studio", "latitude": -87.6242199, "longitude": 41.85360644, "Shape_Leng": 0.00101500808, "Shape_Area": 3.006e-08 }, "geometry": { "type": "Point", "coordinates": [ -87.624219895799484, 41.853606440825899 ] } },
{ "type": "Feature", "properties": { "address": "25 E Erie St", "architect": "Cobb & Frost", "date_built": "1886", "id": "L- 38", "landmark": "4/11/2007", "name": "Ransom R Cable House", "latitude": -87.62716599, "longitude": 41.89388016, "Shape_Leng": 0.00156278417, "Shape_Area": 9.477e-08 }, "geometry": { "type": "Point", "coordinates": [ -87.627165987049608, 41.893880159634271 ] } },
{ "type": "Feature", "properties": { "address": "1519 West Warren Blvd", "architect": "Banjamin Albert Comm", "date_built": "1930", "id": "L-290", "landmark": "6/9/2010", "name": "Union Park Hotel", "latitude": -87.66615384000001, "longitude": 41.88212992, "Shape_Leng": 0.00123683456, "Shape_Area": 9.554e-08 }, "geometry": { "type": "Point", "coordinates": [ -87.666153837460811, 41.882129921254688 ] } },
{ "type": "Feature", "properties": { "address": "1810 West Cortland St,", "architect": "Unknown", "date_built": "1889`", "id": "L-294", "landmark": "6/9/2010", "name": "Richard Nickel Studio", "latitude": -87.67324118000001, "longitude": 41.91627982, "Shape_Leng": 0.00086350007, "Shape_Area": 3.011e-08 }, "geometry": { "type": "Point", "coordinates": [ -87.673241176971871, 41.916279821365933 ] } },
{ "type": "Feature", "properties": { "address": "301 N Mayfield Av", "architect": "Paul Schweikher, addit in 1956:William Fyfe", "date_built": "1936", "id": "L-258", "landmark": "2/6/2008", "name": "Third Unitarian Church Building", "latitude": -87.77151773, "longitude": 41.88587724, "Shape_Leng": 0.00218986401, "Shape_Area": 1.5065e-07 }, "geometry": { "type": "Point", "coordinates": [ -87.771517733637864, 41.885877244844323 ] } },
{ "type": "Feature", "properties": { "address": "1121 N Leavitt St", "architect": "Louis H. Sullivan", "date_built": "1903", "id": "L-114", "landmark": "3/21/1979", "name": "Holy Trinity Orthodox Cathedral and Rectory", "latitude": -87.68178871000001, "longitude": 41.9019437, "Shape_Leng": 0.00138710891, "Shape_Area": 1.163e-07 }, "geometry": { "type": "Point", "coordinates": [ -87.681788708957697, 41.901943702734435 ] } },
{ "type": "Feature", "properties": { "address": "228 W Illinois St", "architect": null, "date_built": null, "id": "L-252", "landmark": "12/12/2007", "name": "(Former) Engine Company 42 Firehouse", "latitude": -87.63528245000001, "longitude": 41.8910068, "Shape_Leng": 0.00084314793, "Shape_Area": 4.035e-08 }, "geometry": { "type": "Point", "coordinates": [ -87.635282453966255, 41.891006795227625 ] } },
{ "type": "Feature", "properties": { "address": "37-43 S LaSalle St", "architect": "1898 add:Jenney & Mundie 1903 add:Arch Unknown", "date_built": "1893-94", "id": "L-217", "landmark": "7/26/2006", "name": "New York Life Building", "latitude": -87.63174751, "longitude": 41.88088658, "Shape_Leng": 0.00213718813, "Shape_Area": 1.8663e-07 }, "geometry": { "type": "Point", "coordinates": [ -87.631747510582102, 41.880886582958247 ] } },
{ "type": "Feature", "properties": { "address": "36 W Randolph St", "architect": "Wheelock & Thomas,2 story add + atrium 1889 Huber", "date_built": "1872-74", "id": "L- 95", "landmark": "11/23/1983", "name": "Delaware Building", "latitude": -87.62919338, "longitude": 41.88468607, "Shape_Leng": 0.00090430494, "Shape_Area": 5.114e-08 }, "geometry": { "type": "Point", "coordinates": [ -87.629193381942258, 41.884686067719961 ] } },
{ "type": "Feature", "properties": { "address": "S Side of Chicago River, bet Michigan and Wabash", "architect": "Bridge & Bridge Hses:1920:E. Bennett", "date_built": "1920&1926", "id": "L-219", "landmark": "10/2/1991", "name": "Michigan Avenue Bridge and Wacker Dr Esplanade", "latitude": -87.62449324000001, "longitude": 41.88853762, "Shape_Leng": 0.01033258201, "Shape_Area": 1.70727e-06 }, "geometry": { "type": "Point", "coordinates": [ -87.624816043459262, 41.88856216350694 ] } },
{ "type": "Feature", "properties": { "address": "3213-19 S Calumet Av", "architect": "Frank Lloyd Wright", "date_built": "1894", "id": "L-177", "landmark": "12/27/1979", "name": "Robert W. Roloson Houses", "latitude": -87.61786831000001, "longitude": 41.83605095, "Shape_Leng": 0.0013432701, "Shape_Area": 9.727e-08 }, "geometry": { "type": "Point", "coordinates": [ -87.617868312929374, 41.836050953861658 ] } },
{ "type": "Feature", "properties": { "address": "160 W Wendell St", "architect": "Architect Unknown", "date_built": "1882", "id": "L-183", "landmark": "5/7/1978", "name": "James A. Sexton School", "latitude": -87.63384357, "longitude": 41.90156831, "Shape_Leng": 0.00231906482, "Shape_Area": 2.3321e-07 }, "geometry": { "type": "Point", "coordinates": [ -87.633843566454615, 41.901568312818263 ] } },
{ "type": "Feature", "properties": { "address": "203 N Wabash Av", "architect": "C.W. & George L. Rapp", "date_built": "1928", "id": "L-157", "landmark": "6/4/2003", "name": "Old Dearborn Bank Building", "latitude": -87.62601965, "longitude": 41.88605727, "Shape_Leng": 0.00111701863, "Shape_Area": 6.73e-08 }, "geometry": { "type": "Point", "coordinates": [ -87.626019652368896, 41.886057265360762 ] } },
{ "type": "Feature", "properties": { "address": "343 S Dearborn St", "architect": "D.H. Burnham & Co. 1907:side add. Peter Weber", "date_built": "1896", "id": "L- 94", "landmark": "6/7/1978", "name": "Fisher Building", "latitude": -87.62899138, "longitude": 41.87719864, "Shape_Leng": 0.00134357372, "Shape_Area": 1.0672e-07 }, "geometry": { "type": "Point", "coordinates": [ -87.628991377578686, 41.877198635567574 ] } },
{ "type": "Feature", "properties": { "address": "1052 W Waveland Av", "architect": "Charles W. Kallal", "date_built": "1915", "id": "L-230", "landmark": "10/1/2003", "name": "Engine Company 78", "latitude": -87.65656809, "longitude": 41.94930082, "Shape_Leng": 0.00115336226, "Shape_Area": 7.683e-08 }, "geometry": { "type": "Point", "coordinates": [ -87.656568086120359, 41.949300820432995 ] } },
{ "type": "Feature", "properties": { "address": "2400 W Madison St", "architect": "Mundie & Jensen", "date_built": "1929-30", "id": "L-209", "landmark": "10/1/2003", "name": "West Town State Bank Building", "latitude": -87.68673538, "longitude": 41.88143107, "Shape_Leng": 0.00113844541, "Shape_Area": 7.741e-08 }, "geometry": { "type": "Point", "coordinates": [ -87.686735376195884, 41.88143107222691 ] } },
{ "type": "Feature", "properties": { "address": "6657-59 S Harvard Av", "architect": "Solon S. Beman", "date_built": "1904-05", "id": "L- 61", "landmark": "7/26/2006", "name": "Canaan Baptist Church of Christ Building", "latitude": -87.63278111, "longitude": 41.77296259, "Shape_Leng": 0.00220018362, "Shape_Area": 2.834e-07 }, "geometry": { "type": "Point", "coordinates": [ -87.632781106920049, 41.772962591956535 ] } },
{ "type": "Feature", "properties": { "address": "9801 S Avenue G", "architect": "South Park Commission Architects", "date_built": "1922-24", "id": "L- 33", "landmark": "10/4/2006", "name": "Calumet Park Fieldhouse", "latitude": -87.53057838, "longitude": 41.71773729, "Shape_Leng": 0.00373821646, "Shape_Area": 2.7192e-07 }, "geometry": { "type": "Point", "coordinates": [ -87.53057838201461, 41.717737289829522 ] } },
{ "type": "Feature", "properties": { "address": "San & Ship Canal, N of Stevenson Exp & E of Kedzie", "architect": null, "date_built": null, "id": "L-244", "landmark": "12/12/2007", "name": "Illinois Central Swing Bridge", "latitude": -87.70241367, "longitude": 41.83242443, "Shape_Leng": 0.0036872392, "Shape_Area": 1.7927e-07 }, "geometry": { "type": "Point", "coordinates": [ -87.702413670549333, 41.832424432815721 ] } },
{ "type": "Feature", "properties": { "address": "430 S Michigan Av", "architect": "Adler & Sullivan", "date_built": "1886-90", "id": "L- 50", "landmark": "9/15/1976", "name": "Auditorium Building", "latitude": -87.62516001, "longitude": 41.87603942, "Shape_Leng": 0.00368711003, "Shape_Area": 6.3273e-07 }, "geometry": { "type": "Point", "coordinates": [ -87.625160008052987, 41.876039421581815 ] } },
{ "type": "Feature", "properties": { "address": "17 E Monroe St", "architect": "Holabird & Roche", "date_built": "1925-27", "id": "L- 35", "landmark": "12/13/2006", "name": "Palmer House Hotel", "latitude": -87.62695422, "longitude": 41.88030689, "Shape_Leng": 0.00398532555, "Shape_Area": 8.567e-07 }, "geometry": { "type": "Point", "coordinates": [ -87.626954217758566, 41.880306886579106 ] } },
{ "type": "Feature", "properties": { "address": "2314 W 111th Pl", "architect": "Palliser, Palliser & Co.", "date_built": "1882", "id": "L- 41", "landmark": "2/16/2000", "name": "Palliser's Cottage Home No. 35", "latitude": -87.67939883, "longitude": 41.69109192, "Shape_Leng": 0.0010716056, "Shape_Area": 6.457e-08 }, "geometry": { "type": "Point", "coordinates": [ -87.679398834572979, 41.691091916662344 ] } },
{ "type": "Feature", "properties": { "address": "5800 N Ravenswood Av", "architect": "William W. Boyington", "date_built": "1864", "id": "L- 21", "landmark": "10/16/1980", "name": "Rosehill Cemetery Entrance", "latitude": -87.67515459000001, "longitude": 41.98639475, "Shape_Leng": 0.00227893937, "Shape_Area": 7.852e-08 }, "geometry": { "type": "Point", "coordinates": [ -87.675246675987026, 41.986594062701947 ] } },
{ "type": "Feature", "properties": { "address": "1710 N Crilly Court", "architect": "Architect Unknown", "date_built": "1885", "id": "L-102", "landmark": "6/6/2001", "name": "Henry Gerber House", "latitude": -87.63603058, "longitude": 41.91321333, "Shape_Leng": 0.00085919925, "Shape_Area": 1.819e-08 }, "geometry": { "type": "Point", "coordinates": [ -87.636030583766399, 41.913213325584088 ] } },
{ "type": "Feature", "properties": { "address": "319 W Erie St", "architect": "Frederick R. Foltz", "date_built": "1899", "id": "L- 49", "landmark": "7/9/2003", "name": "Assumption School", "latitude": -87.63651848000001, "longitude": 41.8937173, "Shape_Leng": 0.00105320358, "Shape_Area": 6.921e-08 }, "geometry": { "type": "Point", "coordinates": [ -87.63651848438262, 41.893717300906211 ] } },
{ "type": "Feature", "properties": { "address": "5550 N Kenmore Av", "architect": "Alexander L. Levy & William J. Klein", "date_built": "1927-28", "id": "L- 57", "landmark": "11/6/2002", "name": "Bryn Mawr Apartment Hotel", "latitude": -87.65700296, "longitude": 41.98331134, "Shape_Leng": 0.00220038061, "Shape_Area": 3.0258e-07 }, "geometry": { "type": "Point", "coordinates": [ -87.65700295570025, 41.98331134340431 ] } },
{ "type": "Feature", "properties": { "address": "1244 N Wells St", "architect": "1907 (add.) Board of Public Works", "date_built": "1874", "id": "L-226", "landmark": "10/1/2003", "name": "(Former) Engine Company 27", "latitude": -87.63484793000001, "longitude": 41.90516102, "Shape_Leng": 0.00097525781, "Shape_Area": 4.42e-08 }, "geometry": { "type": "Point", "coordinates": [ -87.634847934789477, 41.905161015089639 ] } },
{ "type": "Feature", "properties": { "address": "227-35 W Lake St & 173-91 N Franklin St", "architect": "Burling & Adler, George Edbrooke. Addit 1896:Adler", "date_built": "1872-75", "id": "L-131", "landmark": "2/26/1977", "name": "Lake-Franklin Group", "latitude": -87.63510253, "longitude": 41.88536889, "Shape_Leng": 0.00158681334, "Shape_Area": 1.4761e-07 }, "geometry": { "type": "Point", "coordinates": [ -87.635102533646119, 41.8853688871055 ] } },
{ "type": "Feature", "properties": { "address": "4659 S Cottage Grove Av", "architect": null, "date_built": null, "id": "L-262", "landmark": "7/9/2008", "name": "(Former) South Side Trust Bank Bldg", "latitude": -87.60611328, "longitude": 41.80976635, "Shape_Leng": 0.00163063287, "Shape_Area": 1.4859e-07 }, "geometry": { "type": "Point", "coordinates": [ -87.606113282378345, 41.809766346037925 ] } },
{ "type": "Feature", "properties": { "address": "10541 S Hoyne Av", "architect": "Frank Lloyd Wright", "date_built": "1917", "id": "L- 48", "landmark": "7/13/1994", "name": "American System-Built Houses", "latitude": -87.67382636000001, "longitude": 41.7015922, "Shape_Leng": 0.00137345296, "Shape_Area": 7.459e-08 }, "geometry": { "type": "Point", "coordinates": [ -87.673826355638383, 41.701592203554696 ] } },
{ "type": "Feature", "properties": { "address": "Dekoven (1050s) & Jefferson (600w) St", "architect": "comm sculpture,\"Pillar of Fire\" Egon Weiner 1961", "date_built": "1871", "id": "L-187", "landmark": "9/15/1971", "name": "Site of the Origin of the Chicago Fire of 1871", "latitude": -87.64199072, "longitude": 41.86927206, "Shape_Leng": 0.00080629927, "Shape_Area": 3.928e-08 }, "geometry": { "type": "Point", "coordinates": [ -87.641990716413119, 41.869272063003358 ] } },
{ "type": "Feature", "properties": { "address": "50 West Washington St", "architect": "C.F. Murphy Associates, Sculptor:Pablo Picasso", "date_built": "1965", "id": "L- 78", "landmark": "11/6/2002", "name": "Daley Center", "latitude": -87.63018307, "longitude": 41.88384712, "Shape_Leng": 0.00447791912, "Shape_Area": 1.24853e-06 }, "geometry": { "type": "Point", "coordinates": [ -87.630183069719152, 41.883847115784896 ] } },
{ "type": "Feature", "properties": { "address": "8935 S Commercial Av", "architect": "George Grant Elmslie & Herman V. von Holst", "date_built": "1925", "id": "L-164", "landmark": "4/16/1996", "name": "Peoples Gas-South Chicago Neighborhood Store", "latitude": -87.55092055, "longitude": 41.73264845, "Shape_Leng": 0.00129540384, "Shape_Area": 7.011e-08 }, "geometry": { "type": "Point", "coordinates": [ -87.550920547209984, 41.732648450840408 ] } },
{ "type": "Feature", "properties": { "address": "5349 S Wabash Av", "architect": "Charles W. Kallal", "date_built": "1927-28", "id": "L-231", "landmark": "10/1/2003", "name": "Engine Company 61", "latitude": -87.62366078, "longitude": 41.79669781, "Shape_Leng": 0.00143364539, "Shape_Area": 7.506e-08 }, "geometry": { "type": "Point", "coordinates": [ -87.623660776781023, 41.796697810624103 ] } },
{ "type": "Feature", "properties": { "address": "Grand Av and Streeter Dr at Lake Michigan", "architect": "Charles Summer Frost", "date_built": "1916", "id": "L-150", "landmark": "11/14/1977", "name": "Navy Pier (Headhouse and East End Building)", "latitude": -87.60469642, "longitude": 41.89173526, "Shape_Leng": 0.02499517692, "Shape_Area": 7.71598e-06 }, "geometry": { "type": "Point", "coordinates": [ -87.604696421371202, 41.891735255705626 ] } },
{ "type": "Feature", "properties": { "address": "4605 N Hermitage Ave", "architect": "Dahlgren & Lievendahl - rear addit 1906 - unknown", "date_built": "1891", "id": "L- 17", "landmark": "3/1/2006", "name": "Dr. Wallace C. Abbott House", "latitude": -87.6720606, "longitude": 41.96542987, "Shape_Leng": 0.00171781558, "Shape_Area": 1.5311e-07 }, "geometry": { "type": "Point", "coordinates": [ -87.672060601203611, 41.965429869318726 ] } },
{ "type": "Feature", "properties": { "address": "2543 - 2545 W Diversey Av", "architect": null, "date_built": null, "id": "L-264", "landmark": "7/30/2008", "name": "Vassar Swiss Underwear Company Building", "latitude": -87.6921001, "longitude": 41.93162661, "Shape_Leng": 0.00373169957, "Shape_Area": 7.853e-07 }, "geometry": { "type": "Point", "coordinates": [ -87.692100095661033, 41.93162660835646 ] } },
{ "type": "Feature", "properties": { "address": "5200 W Chicago Av", "architect": "Meyer & Cook with Northwestern Terra Cotta Co.", "date_built": "1927-29", "id": "L-132", "landmark": "6/14/1995", "name": "Laramie State Bank Building", "latitude": -87.75583758000001, "longitude": 41.89520776, "Shape_Leng": 0.00113318979, "Shape_Area": 7.561e-08 }, "geometry": { "type": "Point", "coordinates": [ -87.755837582649534, 41.895207759587102 ] } },
{ "type": "Feature", "properties": { "address": "640 W Irving Park Rd & 4030 N Marine Dr", "architect": "Barry Byrne", "date_built": "1922", "id": "L- 20", "landmark": "7/27/1983", "name": "Immaculata High School & Convent Buildings", "latitude": -87.6462916, "longitude": 41.95512134, "Shape_Leng": 0.00519964996, "Shape_Area": 1.36538e-06 }, "geometry": { "type": "Point", "coordinates": [ -87.646291601955411, 41.955121337961074 ] } },
{ "type": "Feature", "properties": { "address": "140 S Dearborn St", "architect": "Holabird and Roche", "date_built": "1895", "id": "L-140", "landmark": "6/9/1975", "name": "Marquette Building", "latitude": -87.62974012, "longitude": 41.87978697, "Shape_Leng": 0.00206732547, "Shape_Area": 2.6707e-07 }, "geometry": { "type": "Point", "coordinates": [ -87.629740118331512, 41.879786973135218 ] } },
{ "type": "Feature", "properties": { "address": "N Branch Chgo River, S of Kinzie & E of Canal St", "architect": null, "date_built": null, "id": "L-250", "landmark": "12/12/2007", "name": "Chicago & Northwestern Bridge", "latitude": -87.63909924, "longitude": 41.88851006, "Shape_Leng": 0.0016736491, "Shape_Area": 6.83e-08 }, "geometry": { "type": "Point", "coordinates": [ -87.639099237766942, 41.888510064654149 ] } },
{ "type": "Feature", "properties": { "address": "5551 S University Av", "architect": "George and William Keck", "date_built": "1937", "id": "L-126", "landmark": "8/3/1994", "name": "Keck-Gottschalk-Keck Apartments", "latitude": -87.59770366, "longitude": 41.79355086, "Shape_Leng": 0.00137586286, "Shape_Area": 7.549e-08 }, "geometry": { "type": "Point", "coordinates": [ -87.597703661613821, 41.793550860979465 ] } },
{ "type": "Feature", "properties": { "address": "814 N Michigan Av", "architect": "Perkins, Fellows & Hamilton", "date_built": "1917", "id": "L-165", "landmark": "12/1/1993", "name": "Perkins, Fellows & Hamilton Office and Studio", "latitude": -87.62507267, "longitude": 41.89723205, "Shape_Leng": 0.00057779522, "Shape_Area": 2.053e-08 }, "geometry": { "type": "Point", "coordinates": [ -87.625072667554647, 41.897232050714976 ] } },
{ "type": "Feature", "properties": { "address": "520 N Michigan Av", "architect": "Thielbar & Fugard", "date_built": "1928-29", "id": "L-144", "landmark": "2/7/1997", "name": "McGraw-Hill Building", "latitude": -87.62489269, "longitude": 41.89141092, "Shape_Leng": 0.00286573237, "Shape_Area": 3.1074e-07 }, "geometry": { "type": "Point", "coordinates": [ -87.624892685593068, 41.891410921898611 ] } },
{ "type": "Feature", "properties": { "address": "1613-1635 W Chicago av", "architect": "Alfred S. Alshuler", "date_built": "1921-22", "id": "L-105", "landmark": "4/1/1998", "name": "Goldblatt Bros. Department Store", "latitude": -87.66827312, "longitude": 41.89577179, "Shape_Leng": 0.00247622407, "Shape_Area": 3.0268e-07 }, "geometry": { "type": "Point", "coordinates": [ -87.668273124253318, 41.895771792879742 ] } },
{ "type": "Feature", "properties": { "address": "210 S Canal St", "architect": "Graham, Anderson, Probst & White", "date_built": "1913-25", "id": "L-200", "landmark": "5/1/2002", "name": "Union Station", "latitude": -87.64035673, "longitude": 41.8786699, "Shape_Leng": 0.00452938634, "Shape_Area": 1.28012e-06 }, "geometry": { "type": "Point", "coordinates": [ -87.640356733268405, 41.878669902462732 ] } },
{ "type": "Feature", "properties": { "address": "S Fork of S Branch, N of Archer & E of Ashland", "architect": null, "date_built": null, "id": "L-243", "landmark": "12/12/2007", "name": "Chicago and Alton Bridge", "latitude": -87.66464137, "longitude": 41.83987359, "Shape_Leng": 0.00184785211, "Shape_Area": 1.0024e-07 }, "geometry": { "type": "Point", "coordinates": [ -87.664641367303915, 41.839873594270841 ] } },
{ "type": "Feature", "properties": { "address": "4359 S Michigan Av", "architect": "Leon E. Stanhope", "date_built": "1911", "id": "L- 87", "landmark": "6/9/1993", "name": "Eighth Church of Christ, Scientist", "latitude": -87.62250788, "longitude": 41.81498777, "Shape_Leng": 0.00184231586, "Shape_Area": 1.9538e-07 }, "geometry": { "type": "Point", "coordinates": [ -87.622507883331025, 41.814987768571747 ] } },
{ "type": "Feature", "properties": { "address": "3500 W Douglas Blvd", "architect": "Klaber & Grunfeld", "date_built": "1927", "id": "L- 23", "landmark": "6/28/2000", "name": "Jewish People's Institute", "latitude": -87.71337292, "longitude": 41.86325563, "Shape_Leng": 0.00248132732, "Shape_Area": 3.7385e-07 }, "geometry": { "type": "Point", "coordinates": [ -87.713372916463712, 41.86325562595183 ] } },
{ "type": "Feature", "properties": { "address": "111 N State St", "architect": "Daniel H. Burham & Charles Atwood", "date_built": "1892", "id": "L-141", "landmark": "11/1/2005", "name": "Marshall Field and Company Building", "latitude": -87.62703774000001, "longitude": 41.8838568, "Shape_Leng": 0.00463130157, "Shape_Area": 1.33033e-06 }, "geometry": { "type": "Point", "coordinates": [ -87.627037739586868, 41.883856801824166 ] } },
{ "type": "Feature", "properties": { "address": "1400 W Augusta Blvd", "architect": "Pond & Pond", "date_built": "1901", "id": "L-154", "landmark": "12/1/1993", "name": "Northwestern University Settlement House", "latitude": -87.6628741, "longitude": 41.90004273, "Shape_Leng": 0.00161262977, "Shape_Area": 1.587e-07 }, "geometry": { "type": "Point", "coordinates": [ -87.662874097606931, 41.900042726572508 ] } },
{ "type": "Feature", "properties": { "address": "3945 N Tripp Av", "architect": "Architect Unknown", "date_built": "1874", "id": "L-171", "landmark": "9/22/1988", "name": "Stephen Race House", "latitude": -87.73367075, "longitude": 41.95310186, "Shape_Leng": 0.00083115715, "Shape_Area": 3.797e-08 }, "geometry": { "type": "Point", "coordinates": [ -87.733670745222668, 41.953101856857742 ] } },
{ "type": "Feature", "properties": { "address": "1156-80 E 59th St", "architect": "Bertram Grosvenor Goodhue Associates", "date_built": "1925-28", "id": "L-178", "landmark": "11/3/2004", "name": "Rockefeller Memorial Chapel", "latitude": -87.59704431, "longitude": 41.78852591, "Shape_Leng": 0.00248298467, "Shape_Area": 1.579e-07 }, "geometry": { "type": "Point", "coordinates": [ -87.59704430730207, 41.788525909136595 ] } },
{ "type": "Feature", "properties": { "address": "3558 S Artesian Av", "architect": "Oscar Cobb & Co.", "date_built": "1876", "id": "L- 85", "landmark": "4/16/1996", "name": "DuPont-Whitehouse House", "latitude": -87.68659368, "longitude": 41.82858165, "Shape_Leng": 0.00118968819, "Shape_Area": 6.278e-08 }, "geometry": { "type": "Point", "coordinates": [ -87.686593681959977, 41.828581649055984 ] } },
{ "type": "Feature", "properties": { "address": "2132 N Stockton Dr", "architect": "Perkins, Fellows & Hamilton", "date_built": "1912", "id": "L- 15", "landmark": "11/30/2005", "name": "Lion House - Lincoln Park Zoo", "latitude": -87.63333598, "longitude": 41.92133817, "Shape_Leng": 0.00209870554, "Shape_Area": 1.6584e-07 }, "geometry": { "type": "Point", "coordinates": [ -87.633335981257318, 41.921338169926408 ] } },
{ "type": "Feature", "properties": { "address": "919 N Michigan Av", "architect": "Holabird & Root", "date_built": "1927-29", "id": "L-161", "landmark": "2/16/2000", "name": "Palmolive Building", "latitude": -87.62350152, "longitude": 41.89977946, "Shape_Leng": 0.00225623213, "Shape_Area": 2.3615e-07 }, "geometry": { "type": "Point", "coordinates": [ -87.623501521156356, 41.899779461992864 ] } },
{ "type": "Feature", "properties": { "address": "1062 W Bryn Mawr Av", "architect": "Nathaniel Koenigsberg & Leon Weisfeld", "date_built": "1928-29", "id": "L- 55", "landmark": "11/6/2002", "name": "Belle Shore Apartment Hotel", "latitude": -87.65762447, "longitude": 41.98385069, "Shape_Leng": 0.00147445935, "Shape_Area": 1.0276e-07 }, "geometry": { "type": "Point", "coordinates": [ -87.657624469231337, 41.983850685945846 ] } },
{ "type": "Feature", "properties": { "address": "Avenue G, near 103rd St", "architect": "Office of the United States Surveyor-General", "date_built": "1838", "id": "L-118", "landmark": "9/4/2002", "name": "Illinois-Indiana State Line Boundary Marker", "latitude": -87.52622269, "longitude": 41.70886467, "Shape_Leng": 0.00851508102, "Shape_Area": 6.347e-07 }, "geometry": { "type": "Point", "coordinates": [ -87.526222688967565, 41.708864670510529 ] } },
{ "type": "Feature", "properties": { "address": "435 N Michigan Av", "architect": "Raymond M. Hood and John Mead Howells", "date_built": "1922-25", "id": "L-198", "landmark": "2/1/1989", "name": "Tribune Tower", "latitude": -87.62326507, "longitude": 41.89046022, "Shape_Leng": 0.00396250378, "Shape_Area": 9.5225e-07 }, "geometry": { "type": "Point", "coordinates": [ -87.623265067953554, 41.890460218022895 ] } },
{ "type": "Feature", "properties": { "address": "230 N Michigan Av", "architect": "Burnham Brothers, Inc.", "date_built": "1929", "id": "L- 62", "landmark": "5/9/1996", "name": "Carbide and Carbon Building", "latitude": -87.62499482, "longitude": 41.88652361, "Shape_Leng": 0.00175598811, "Shape_Area": 1.9074e-07 }, "geometry": { "type": "Point", "coordinates": [ -87.624994823547823, 41.886523614128308 ] } },
{ "type": "Feature", "properties": { "address": "141 W Jackson Blvd", "architect": "Holabird & Root", "date_built": "1930", "id": "L- 14", "landmark": "5/4/1977", "name": "Chicago Board of Trade Building", "latitude": -87.63227115, "longitude": 41.87773513, "Shape_Leng": 0.00254810132, "Shape_Area": 4.0546e-07 }, "geometry": { "type": "Point", "coordinates": [ -87.632271149430096, 41.877735131750669 ] } },
{ "type": "Feature", "properties": { "address": "330 North Wabash Av", "architect": null, "date_built": null, "id": "L-257", "landmark": "2/6/2008", "name": "IBM Building", "latitude": -87.62750766000001, "longitude": 41.88861449, "Shape_Leng": 0.00437941745, "Shape_Area": 6.9819e-07 }, "geometry": { "type": "Point", "coordinates": [ -87.627507655913774, 41.888614489761885 ] } },
{ "type": "Feature", "properties": { "address": "319 E Garfield Blvd", "architect": "Myron Church", "date_built": "1892", "id": "L- 99", "landmark": "12/12/2001", "name": "Garfield Boulevard \"L\" Station and Overpass", "latitude": -87.61830365, "longitude": 41.79373533, "Shape_Leng": 0.00296136527, "Shape_Area": 1.6327e-07 }, "geometry": { "type": "Point", "coordinates": [ -87.618306665756833, 41.793885832944376 ] } },
{ "type": "Feature", "properties": { "address": "319 E Garfield Blvd", "architect": "Myron Church", "date_built": "1892", "id": "L- 99", "landmark": "12/12/2001", "name": "Garfield Boulevard \"L\" Station and Overpass", "latitude": -87.61830365, "longitude": 41.79373533, "Shape_Leng": 0.00296136527, "Shape_Area": 1.6327e-07 }, "geometry": { "type": "Point", "coordinates": [ -87.618293437948196, 41.793226343449092 ] } },
{ "type": "Feature", "properties": { "address": "SW Corner of W 9th St & Plymouth Ct", "architect": null, "date_built": null, "id": "L- 10", "landmark": "5/26/2004", "name": "Site of the John & Mary Jones House", "latitude": -87.62956097, "longitude": 41.86979498, "Shape_Leng": 0.01283361024, "Shape_Area": 3.22046e-06 }, "geometry": { "type": "Point", "coordinates": [ -87.62935975179451, 41.869418870733739 ] } },
{ "type": "Feature", "properties": { "address": "SW Corner of W 9th St & Plymouth Ct", "architect": null, "date_built": null, "id": "L- 10", "landmark": "5/26/2004", "name": "Site of the John & Mary Jones House", "latitude": -87.62956097, "longitude": 41.86979498, "Shape_Leng": 0.01283361024, "Shape_Area": 3.22046e-06 }, "geometry": { "type": "Point", "coordinates": [ -87.629977871808975, 41.871011539303574 ] } },
{ "type": "Feature", "properties": { "address": "SW Corner of W 9th St & Plymouth Ct", "architect": null, "date_built": null, "id": "L- 10", "landmark": "5/26/2004", "name": "Site of the John & Mary Jones House", "latitude": -87.62956097, "longitude": 41.86979498, "Shape_Leng": 0.01283361024, "Shape_Area": 3.22046e-06 }, "geometry": { "type": "Point", "coordinates": [ -87.630059027059247, 41.870148535687143 ] } },
{ "type": "Feature", "properties": { "address": "180-90 N Dearborn st", "architect": "C. Howard Crane & H Kenneth Franzheim", "date_built": "1922", "id": "L-108", "landmark": "3/31/1983", "name": "Harris and Selwyn Theaters", "latitude": -87.629876, "longitude": 41.88505279, "Shape_Leng": 0.00326137142, "Shape_Area": 4.9977e-07 }, "geometry": { "type": "Point", "coordinates": [ -87.629875997366966, 41.885052794119325 ] } },
{ "type": "Feature", "properties": { "address": "5810 W Midway Park", "architect": "Frederick Schock", "date_built": "1892", "id": "L-223", "landmark": "1/20/1999", "name": "Beeson House and Coach House", "latitude": -87.77060811, "longitude": 41.88931789, "Shape_Leng": 0.00173975363, "Shape_Area": 1.8854e-07 }, "geometry": { "type": "Point", "coordinates": [ -87.770608107318651, 41.889317889244474 ] } },
{ "type": "Feature", "properties": { "address": "431 S Dearborn St", "architect": "William LeBaron Jenney", "date_built": "1891", "id": "L-139", "landmark": "7/7/1978", "name": "Manhattan Building", "latitude": -87.62896445, "longitude": 41.87606572, "Shape_Leng": 0.00131628343, "Shape_Area": 1.0222e-07 }, "geometry": { "type": "Point", "coordinates": [ -87.628964450618852, 41.876065723400153 ] } },
{ "type": "Feature", "properties": { "address": "22 W Monore St", "architect": "Edmund R. Krause", "date_built": "1906", "id": "L-138", "landmark": "5/11/2005", "name": "Majestic Building and Theater", "latitude": -87.62857776, "longitude": 41.88107856, "Shape_Leng": 0.00165378988, "Shape_Area": 1.5795e-07 }, "geometry": { "type": "Point", "coordinates": [ -87.628577757048376, 41.88107855577455 ] } },
{ "type": "Feature", "properties": { "address": "1 S State St", "architect": "Louis H. Sullivan, 1905-6:D.H. Burnham&Co.", "date_built": "1898-99", "id": "L- 63", "landmark": "11/5/1970", "name": "Carson Pirie Scott & Company Building", "latitude": -87.62698011000001, "longitude": 41.88140588, "Shape_Leng": 0.00597352941, "Shape_Area": 1.15585e-06 }, "geometry": { "type": "Point", "coordinates": [ -87.626980111232896, 41.881405875711465 ] } },
{ "type": "Feature", "properties": { "address": "2466 N Lakeview Av", "architect": "Richard E. Schmidt", "date_built": "1896", "id": "L-194", "landmark": "8/10/1979", "name": "Theurer-Wrigley House", "latitude": -87.63953901, "longitude": 41.9275524, "Shape_Leng": 0.0014213243, "Shape_Area": 1.0699e-07 }, "geometry": { "type": "Point", "coordinates": [ -87.639539006686093, 41.927552401298193 ] } },
{ "type": "Feature", "properties": { "address": "503 W Wrightwood Av", "architect": "Adolph Cudell & Arthur Hercz", "date_built": "1896", "id": "L- 83", "landmark": "6/12/1974", "name": "Francis J. Dewes House", "latitude": -87.64157423, "longitude": 41.93034077, "Shape_Leng": 0.00134307911, "Shape_Area": 1.0753e-07 }, "geometry": { "type": "Point", "coordinates": [ -87.641574228063945, 41.930340766225427 ] } },
{ "type": "Feature", "properties": { "address": "320 N Clark St", "architect": "George C. Nimmons", "date_built": "1914", "id": "L-174", "landmark": "11/15/1976", "name": "Reid, Murdoch and Company Building", "latitude": -87.63183147, "longitude": 41.88812724, "Shape_Leng": 0.00348312871, "Shape_Area": 5.3555e-07 }, "geometry": { "type": "Point", "coordinates": [ -87.631831472219758, 41.88812723888924 ] } },
{ "type": "Feature", "properties": { "address": "2500 W Lunt Av", "architect": "Clarence Hatzfeld", "date_built": "1929", "id": "L-120", "landmark": "5/11/2005", "name": "Indian Boundary Park Fieldhouse", "latitude": -87.69259933, "longitude": 42.0088761, "Shape_Leng": 0.00170893108, "Shape_Area": 1.7795e-07 }, "geometry": { "type": "Point", "coordinates": [ -87.692599331470063, 42.008876104416181 ] } },
{ "type": "Feature", "properties": { "address": "4600 S Cottage Grove Av", "architect": "Argyle E. Robinson", "date_built": "1928", "id": "L-232", "landmark": "10/1/2003", "name": "Engine Company 45, Truck 15", "latitude": -87.6070024, "longitude": 41.81118499, "Shape_Leng": 0.00115900415, "Shape_Area": 6.312e-08 }, "geometry": { "type": "Point", "coordinates": [ -87.607002400576235, 41.811184994007384 ] } },
{ "type": "Feature", "properties": { "address": "San & Ship Canal, S of 35th St & E of Pulaski Rd", "architect": null, "date_built": null, "id": "L-247", "landmark": "12/12/2007", "name": "Illinois Central Swing Bridge", "latitude": -87.7144107, "longitude": 41.82864937, "Shape_Leng": 0.00200554238, "Shape_Area": 1.0284e-07 }, "geometry": { "type": "Point", "coordinates": [ -87.714410703670069, 41.828649374615352 ] } },
{ "type": "Feature", "properties": { "address": "3333 W Arthington St", "architect": "Nimmons & Fellows and George C. Nimmons & Co.", "date_built": "1905-14", "id": "L-181", "landmark": "9/4/2002", "name": "Sears, Roebuck and Company Administration Building", "latitude": -87.70963237, "longitude": 41.86968209, "Shape_Leng": 0.00506129969, "Shape_Area": 8.4949e-07 }, "geometry": { "type": "Point", "coordinates": [ -87.709632374215516, 41.869682086640076 ] } },
{ "type": "Feature", "properties": { "address": "S B Chgo River, N of 16th St & E of Lumber St", "architect": null, "date_built": null, "id": "L-240", "landmark": "12/12/2007", "name": "St Charles Air Line Bridge", "latitude": -87.63453042, "longitude": 41.86092399, "Shape_Leng": 0.00182410641, "Shape_Area": 8.438e-08 }, "geometry": { "type": "Point", "coordinates": [ -87.634530418068138, 41.860923990558184 ] } },
{ "type": "Feature", "properties": { "address": "57th St and Lake Shore Dr", "architect": "Charles B. Atwood", "date_built": "1891-93", "id": "L- 27", "landmark": "11/1/1995", "name": "Museum of Science and Industry", "latitude": -87.58287466, "longitude": 41.79054723, "Shape_Leng": 0.01578306278, "Shape_Area": 1.862138e-05 }, "geometry": { "type": "Point", "coordinates": [ -87.582874661697048, 41.790547233822863 ] } },
{ "type": "Feature", "properties": { "address": "6565 S Yale Av", "architect": "John T. Long", "date_built": "1892-93", "id": "L-215", "landmark": "4/9/2003", "name": "Yale Apartments", "latitude": -87.63129622, "longitude": 41.77470411, "Shape_Leng": 0.00143192622, "Shape_Area": 1.0406e-07 }, "geometry": { "type": "Point", "coordinates": [ -87.631296223022531, 41.774704106203302 ] } },
{ "type": "Feature", "properties": { "address": "Desplaines St(650W), bet Randolph & Lake", "architect": null, "date_built": "1886", "id": "L-186", "landmark": "3/25/1992", "name": "Site of Haymarket Tragedy", "latitude": -87.64420847, "longitude": 41.88515607, "Shape_Leng": 0.00437893165, "Shape_Area": 3.944e-07 }, "geometry": { "type": "Point", "coordinates": [ -87.644208474530544, 41.885156068119834 ] } },
{ "type": "Feature", "properties": { "address": "121 N LaSalle St / 118 N Clark St", "architect": "Holabird and Roche", "date_built": "1905-08", "id": "L- 71", "landmark": "1/21/1982", "name": "City Hall-County Building", "latitude": -87.63165528, "longitude": 41.88384254, "Shape_Leng": 0.00444661048, "Shape_Area": 1.23181e-06 }, "geometry": { "type": "Point", "coordinates": [ -87.631655281481301, 41.883842542455064 ] } },
{ "type": "Feature", "properties": { "address": "3360 S State St", "architect": "Ludwig Mies van der Rohe", "date_built": "1950-56", "id": "L- 29", "landmark": "10/1/1997", "name": "Crown Hall", "latitude": -87.6272852, "longitude": 41.83324517, "Shape_Leng": 0.00323512137, "Shape_Area": 6.2657e-07 }, "geometry": { "type": "Point", "coordinates": [ -87.627285201117019, 41.83324516766131 ] } },
{ "type": "Feature", "properties": { "address": "3926 N Keeler", "architect": null, "date_built": null, "id": "L-268", "landmark": "10/8/2008", "name": "Charles N. Loucks House", "latitude": -87.73287873, "longitude": 41.95260359, "Shape_Leng": 0.00150429017, "Shape_Area": 1.0235e-07 }, "geometry": { "type": "Point", "coordinates": [ -87.732878731505963, 41.952603593181863 ] } },
{ "type": "Feature", "properties": { "address": "2620 W Washington Blvd", "architect": null, "date_built": null, "id": "L-269", "landmark": null, "name": "Lindemann and Hoverson Company", "latitude": -87.69187042, "longitude": 41.88335059, "Shape_Leng": 0.00179072223, "Shape_Area": 1.9393e-07 }, "geometry": { "type": "Point", "coordinates": [ -87.691870419166889, 41.883350594299024 ] } },
{ "type": "Feature", "properties": { "address": "801 N Clark St", "architect": null, "date_built": null, "id": "L-278", "landmark": null, "name": "(Former) Cosmopolitan State Bank Building", "latitude": -87.63082574000001, "longitude": 41.89684722, "Shape_Leng": 0.00137677036, "Shape_Area": 7.57e-08 }, "geometry": { "type": "Point", "coordinates": [ -87.63082574330339, 41.896847220683945 ] } },
{ "type": "Feature", "properties": { "address": "300 W Adams St", "architect": null, "date_built": null, "id": "L-277", "landmark": null, "name": "300 West Adams Street Office Building", "latitude": -87.63568107, "longitude": 41.87972743, "Shape_Leng": 0.00221173408, "Shape_Area": 3.0567e-07 }, "geometry": { "type": "Point", "coordinates": [ -87.635681069386237, 41.879727427000041 ] } },
{ "type": "Feature", "properties": { "address": "5120 S Dr Martin Luther King, Jr. Dr", "architect": null, "date_built": null, "id": "L-276", "landmark": null, "name": "Chicago Orphan Asylum Building", "latitude": -87.6165078, "longitude": 41.80134196, "Shape_Leng": 0.00194999762, "Shape_Area": 2.3717e-07 }, "geometry": { "type": "Point", "coordinates": [ -87.616507796658425, 41.801341957653328 ] } },
{ "type": "Feature", "properties": { "address": "2551 N Clark Street", "architect": null, "date_built": null, "id": "L-275", "landmark": null, "name": "North Chicago Hospital Building", "latitude": -87.64201185, "longitude": 41.92947136, "Shape_Leng": 0.00252799957, "Shape_Area": 2.1717e-07 }, "geometry": { "type": "Point", "coordinates": [ -87.642011852397545, 41.92947135545252 ] } },
{ "type": "Feature", "properties": { "address": "1546-1550 N Clark St", "architect": null, "date_built": null, "id": "L-274", "landmark": null, "name": "Village Theatre", "latitude": -87.63208883, "longitude": 41.91084528, "Shape_Leng": 0.00150721137, "Shape_Area": 1.0376e-07 }, "geometry": { "type": "Point", "coordinates": [ -87.632088830629783, 41.910845276261711 ] } },
{ "type": "Feature", "properties": { "address": null, "architect": null, "date_built": null, "id": "L-280", "landmark": null, "name": "Kimbell Trust and Savings Bank Building", "latitude": -87.71726933, "longitude": 41.92490852, "Shape_Leng": 0.00125948272, "Shape_Area": 9.835e-08 }, "geometry": { "type": "Point", "coordinates": [ -87.71726932720135, 41.92490852403575 ] } },
{ "type": "Feature", "properties": { "address": "6314 S Western Av", "architect": null, "date_built": null, "id": "L-273", "landmark": null, "name": "(Former) Marquette Park State Bank Building", "latitude": -87.68401948, "longitude": 41.7786654, "Shape_Leng": 0.00126214537, "Shape_Area": 9.187e-08 }, "geometry": { "type": "Point", "coordinates": [ -87.684019481140027, 41.778665403757529 ] } },
{ "type": "Feature", "properties": { "address": "3854 N Kostner Av", "architect": null, "date_built": null, "id": "L-272", "landmark": null, "name": "John and Clara Merchant House", "latitude": -87.73849062, "longitude": 41.95148125, "Shape_Leng": 0.00131775451, "Shape_Area": 5.92e-08 }, "geometry": { "type": "Point", "coordinates": [ -87.738490616582169, 41.951481246693717 ] } },
{ "type": "Feature", "properties": { "address": "3321 N Lincoln Av", "architect": null, "date_built": null, "id": "L-271", "landmark": null, "name": "(Former) Marshfield Trust and Savings Bank Bldg", "latitude": -87.67016345, "longitude": 41.9421918, "Shape_Leng": 0.00123733786, "Shape_Area": 6.609e-08 }, "geometry": { "type": "Point", "coordinates": [ -87.670163454493505, 41.94219180256448 ] } },
{ "type": "Feature", "properties": { "address": "4150 S Halsted St", "architect": null, "date_built": null, "id": "L-279", "landmark": null, "name": "(Former) Stock Yards National Bank Building", "latitude": -87.64629601, "longitude": 41.81880899, "Shape_Leng": 0.00181720297, "Shape_Area": 1.4188e-07 }, "geometry": { "type": "Point", "coordinates": [ -87.646296005499366, 41.818808986684779 ] } },
{ "type": "Feature", "properties": { "address": "5749 W Race Av", "architect": "Frederick Schock", "date_built": "1888", "id": "L-224", "landmark": "1/20/1999", "name": "Marie Schock House", "latitude": -87.76971676, "longitude": 41.88975861, "Shape_Leng": 0.0012623439, "Shape_Area": 9.473e-08 }, "geometry": { "type": "Point", "coordinates": [ -87.769716756405145, 41.889758609019637 ] } },
{ "type": "Feature", "properties": { "address": "360 N Michigan Av", "architect": "Alfred S. Alschuler", "date_built": "1922-23", "id": "L-134", "landmark": "4/16/1996", "name": "London Guarantee Building", "latitude": -87.62505786, "longitude": 41.88795571, "Shape_Leng": 0.00204180746, "Shape_Area": 1.3578e-07 }, "geometry": { "type": "Point", "coordinates": [ -87.625057856325128, 41.887955705126046 ] } },
{ "type": "Feature", "properties": { "address": "4550 N Hermitage Av", "architect": "John C. Cochrane", "date_built": "1883", "id": "L- 44", "landmark": "12/27/1982", "name": "All Saints Church and Rectory", "latitude": -87.67294862, "longitude": 41.96494523, "Shape_Leng": 0.00171347067, "Shape_Area": 1.5245e-07 }, "geometry": { "type": "Point", "coordinates": [ -87.672948616313562, 41.964945229014823 ] } },
{ "type": "Feature", "properties": { "address": "407 S Dearborn St", "architect": "Holabird & Roche", "date_built": "1894", "id": "L-155", "landmark": "7/7/1978", "name": "Old Colony Building", "latitude": -87.62897733, "longitude": 41.87660759, "Shape_Leng": 0.00132125092, "Shape_Area": 1.0334e-07 }, "geometry": { "type": "Point", "coordinates": [ -87.628977334150065, 41.876607594135685 ] } },
{ "type": "Feature", "properties": { "address": "Jackson Park at Hayes & Richards Drs", "architect": "Daniel Chester French,sculptor&Henry Bacon,arch", "date_built": "1918", "id": "L-191", "landmark": "6/4/2003", "name": "Statue of the Republic", "latitude": -87.57988165, "longitude": 41.77959613, "Shape_Leng": 0.00160478198, "Shape_Area": 1.5732e-07 }, "geometry": { "type": "Point", "coordinates": [ -87.579881650941829, 41.779596125891068 ] } },
{ "type": "Feature", "properties": { "address": "2801 S Prarie Av", "architect": "John C. Cochrane", "date_built": "1885", "id": "L-214", "landmark": "10/1/2003", "name": "Wood-Maxey-Boyd House", "latitude": -87.61997676, "longitude": 41.8432903, "Shape_Leng": 0.00158625928, "Shape_Area": 9.141e-08 }, "geometry": { "type": "Point", "coordinates": [ -87.619976758574353, 41.843290297819372 ] } },
{ "type": "Feature", "properties": { "address": "1928-1936 S Michigan Av", "architect": "James Renwick Recon:1900;Howard Van Doren Shaw", "date_built": "1874", "id": "L-182", "landmark": "9/28/1977", "name": "Second Presbyterian Church", "latitude": -87.62435931, "longitude": 41.85572488, "Shape_Leng": 0.00185590757, "Shape_Area": 1.8672e-07 }, "geometry": { "type": "Point", "coordinates": [ -87.624359305291748, 41.855724879719922 ] } },
{ "type": "Feature", "properties": { "address": "177-191 N State St", "architect": "John M. Van Osdel,1902 State St facade:Hill", "date_built": "1872", "id": "L- 40", "landmark": "1/28/1983", "name": "Page Brothers Building", "latitude": -87.62758983000001, "longitude": 41.88548876, "Shape_Leng": 0.001103446, "Shape_Area": 7.548e-08 }, "geometry": { "type": "Point", "coordinates": [ -87.627589832061361, 41.885488762216667 ] } },
{ "type": "Feature", "properties": { "address": "4611 N Lincoln Av", "architect": "William Presto ans Louis H. Sullivan", "date_built": "1922", "id": "L-130", "landmark": "9/28/1977", "name": "Krause Music Store", "latitude": -87.68601082000001, "longitude": 41.96533613, "Shape_Leng": 0.00102672304, "Shape_Area": 3.135e-08 }, "geometry": { "type": "Point", "coordinates": [ -87.686010817492885, 41.965336128957674 ] } },
{ "type": "Feature", "properties": { "address": "18th St & Canalport (500W)", "architect": "Admin Bldg: Adolph Cudell", "date_built": "1886", "id": "L-179", "landmark": "7/13/1988", "name": "Schoenhofen Brewery", "latitude": -87.63973188, "longitude": 41.85805569, "Shape_Leng": 0.00387933834, "Shape_Area": 5.9752e-07 }, "geometry": { "type": "Point", "coordinates": [ -87.639731877293656, 41.858055690431307 ] } },
{ "type": "Feature", "properties": { "address": "4934 S. Wabash Ave.", "architect": "Paul Gerhardt , Sr.", "date_built": "1931-35", "id": "L-315", "landmark": "11/15/2012", "name": "Du Sable High School", "latitude": -87.62514955, "longitude": 41.80460253, "Shape_Leng": 0.00614491384, "Shape_Area": 2.27999e-06 }, "geometry": { "type": "Point", "coordinates": [ -87.625149545189799, 41.804602531033019 ] } },
{ "type": "Feature", "properties": { "address": "4240-60 N. Milwaukee Ave", "architect": "Lindley P. Rowe, in association with Fridstein &Co", "date_built": "1919-20", "id": "L-319", "landmark": "5/8/2013", "name": "Portage Park Theatre Building", "latitude": -87.74930987, "longitude": 41.9541355, "Shape_Leng": 0.00261137891, "Shape_Area": 3.9088e-07 }, "geometry": { "type": "Point", "coordinates": [ -87.749309872118729, 41.954135504184855 ] } },
{ "type": "Feature", "properties": { "address": "4 W Burton Pl", "architect": "Richard E. Schmidt & Hugh M.G. Garden", "date_built": "1902", "id": "L-136", "landmark": "3/22/1973", "name": "Albert F. Madlener House", "latitude": -87.62922179, "longitude": 41.9096486, "Shape_Leng": 0.00129585048, "Shape_Area": 7.858e-08 }, "geometry": { "type": "Point", "coordinates": [ -87.629221795036571, 41.909648597225534 ] } },
{ "type": "Feature", "properties": { "address": "3150 N Sheffield Av", "architect": null, "date_built": null, "id": "L-259", "landmark": "7/9/2008", "name": "(Former) Belmont-Sheffield Trust & Savings Bldg", "latitude": -87.65444854, "longitude": 41.93967875, "Shape_Leng": 0.00146601364, "Shape_Area": 1.2561e-07 }, "geometry": { "type": "Point", "coordinates": [ -87.654448536683105, 41.939678752632013 ] } },
{ "type": "Feature", "properties": { "address": "188 W Randolph St", "architect": "Karl M. Vitzhum & Co.", "date_built": "1929", "id": "L-218", "landmark": "7/26/2006", "name": "Steuben Club Building", "latitude": -87.63360295, "longitude": 41.88482916, "Shape_Leng": 0.00159178997, "Shape_Area": 1.4901e-07 }, "geometry": { "type": "Point", "coordinates": [ -87.633602954854155, 41.884829160941429 ] } },
{ "type": "Feature", "properties": { "address": "4100 S Dr Martin Luther King Jr Dr", "architect": "John Turner Long.1913 mn sanc alt Charles S Frost", "date_built": "1890", "id": "L- 39", "landmark": "7/19/2007", "name": "Metropolitan Apostolic Community Church Building", "latitude": -87.6175253, "longitude": 41.81999824, "Shape_Leng": 0.00164095654, "Shape_Area": 1.499e-07 }, "geometry": { "type": "Point", "coordinates": [ -87.617525298199297, 41.819998244495878 ] } },
{ "type": "Feature", "properties": { "address": "1641 E 79th st", "architect": "John Eberson", "date_built": "1927", "id": "L-151", "landmark": "6/17/1992", "name": "New Regal Theater", "latitude": -87.5835097, "longitude": 41.75124738, "Shape_Leng": 0.00196546829, "Shape_Area": 2.1944e-07 }, "geometry": { "type": "Point", "coordinates": [ -87.583509695237893, 41.751247379628083 ] } },
{ "type": "Feature", "properties": { "address": "East Side of S Ellis Ave between 56th & 57th St", "architect": "Commern. sculpture,\"Nuclear Energy\" Henry Moore", "date_built": "1942", "id": "L-184", "landmark": "10/27/1971", "name": "Site of the 1st Self-Sustain Cont. Nuclear Chain", "latitude": -87.60102373, "longitude": 41.79248263, "Shape_Leng": 0.00107339377, "Shape_Area": 7.151e-08 }, "geometry": { "type": "Point", "coordinates": [ -87.60102373109163, 41.79248262754615 ] } },
{ "type": "Feature", "properties": { "address": "1 N LaSalle St", "architect": "K.M. Vizthum & Co with John Burns", "date_built": "1929-30", "id": "L-160", "landmark": "4/16/1996", "name": "One North LaSalle Building", "latitude": -87.63200594, "longitude": 41.88231361, "Shape_Leng": 0.0017738289, "Shape_Area": 1.9516e-07 }, "geometry": { "type": "Point", "coordinates": [ -87.632005935539567, 41.88231360504394 ] } },
{ "type": "Feature", "properties": { "address": "53 W Jackson Blvd", "architect": "N1/2: Burham & Root; S1/2: Holabird & Roche", "date_built": "1889-93", "id": "L-148", "landmark": "11/14/1973", "name": "Monadnock Block", "latitude": -87.62954581, "longitude": 41.87753145, "Shape_Leng": 0.002678205, "Shape_Area": 2.6849e-07 }, "geometry": { "type": "Point", "coordinates": [ -87.629545808472358, 41.877531447429234 ] } },
{ "type": "Feature", "properties": { "address": "701 N Michigan Av", "architect": "Murgatroyd & Ogden with Fugard & Knapp", "date_built": "1922", "id": "L- 45", "landmark": "4/29/1998", "name": "Allerton Hotel", "latitude": -87.62371376, "longitude": 41.89520098, "Shape_Leng": 0.00171607327, "Shape_Area": 1.6748e-07 }, "geometry": { "type": "Point", "coordinates": [ -87.623713755127952, 41.895200976076779 ] } },
{ "type": "Feature", "properties": { "address": "2151 W Washington Blvd", "architect": "Hugh M.G. Garden", "date_built": "1901", "id": "L-146", "landmark": "2/16/1989", "name": "Metropolitan Missionary Baptist Church", "latitude": -87.68124236, "longitude": 41.88280034, "Shape_Leng": 0.00154064926, "Shape_Area": 1.4795e-07 }, "geometry": { "type": "Point", "coordinates": [ -87.681242355589063, 41.882800341945284 ] } },
{ "type": "Feature", "properties": { "address": "11118 S Artesian Av", "architect": "Architect Unknown", "date_built": "1857", "id": "L-117", "landmark": "7/13/1994", "name": "Charles D. Iglehart House", "latitude": -87.68276849, "longitude": 41.69118327, "Shape_Leng": 0.00108015207, "Shape_Area": 3.769e-08 }, "geometry": { "type": "Point", "coordinates": [ -87.682768485750216, 41.69118327265025 ] } },
{ "type": "Feature", "properties": { "address": "5453 N Forest Glen Av", "architect": "Architect Unknown", "date_built": "1881", "id": "L-110", "landmark": "7/27/2005", "name": "Hazelton-Mikota House", "latitude": -87.75387856, "longitude": 41.98103936, "Shape_Leng": 0.00133007567, "Shape_Area": 7.527e-08 }, "geometry": { "type": "Point", "coordinates": [ -87.753878563489067, 41.981039362178009 ] } },
{ "type": "Feature", "properties": { "address": "1800 S Prairie Av", "architect": "Henry Hobson Richardson", "date_built": "1886", "id": "L-104", "landmark": "10/14/1970", "name": "John J. Glessner House", "latitude": -87.62121066, "longitude": 41.85772464, "Shape_Leng": 0.0016962666, "Shape_Area": 1.3092e-07 }, "geometry": { "type": "Point", "coordinates": [ -87.621210655944935, 41.857724641118203 ] } },
{ "type": "Feature", "properties": { "address": "40-52 E Chicago Av", "architect": "James J. Egan", "date_built": "1882-83", "id": "L-115", "landmark": "3/26/1996", "name": "Hotel St. Benedict Flats", "latitude": -87.62644177, "longitude": 41.89698041, "Shape_Leng": 0.00178476569, "Shape_Area": 1.6699e-07 }, "geometry": { "type": "Point", "coordinates": [ -87.626441771000202, 41.896980407175114 ] } },
{ "type": "Feature", "properties": { "address": "54 W Hubbard St", "architect": "Otto H. Matz", "date_built": "1893", "id": "L- 77", "landmark": "6/9/1993", "name": "Courthouse Place", "latitude": -87.63013194, "longitude": 41.89027098, "Shape_Leng": 0.00204158436, "Shape_Area": 2.047e-07 }, "geometry": { "type": "Point", "coordinates": [ -87.630131944939393, 41.890270979917439 ] } },
{ "type": "Feature", "properties": { "address": "12147 S Harvard Av", "architect": "Frank Lloyd Wright", "date_built": "1900", "id": "L- 97", "landmark": "5/9/1996", "name": "Stephen Foster House and Stable", "latitude": -87.63057375, "longitude": 41.67280322, "Shape_Leng": 0.00131168702, "Shape_Area": 9.259e-08 }, "geometry": { "type": "Point", "coordinates": [ -87.630573750168239, 41.672803222882941 ] } },
{ "type": "Feature", "properties": { "address": "209 S LaSalle St", "architect": "Burnham & Root", "date_built": "1885-88", "id": "L-156", "landmark": "7/5/1972", "name": "Rookery Building", "latitude": -87.63179743000001, "longitude": 41.87907613, "Shape_Leng": 0.00228135814, "Shape_Area": 3.1856e-07 }, "geometry": { "type": "Point", "coordinates": [ -87.631797433841413, 41.879076129797085 ] } },
{ "type": "Feature", "properties": { "address": "100 W Chicago Av", "architect": "J.E.O. Pridmore", "date_built": "1901", "id": "L- 59", "landmark": "6/27/2001", "name": "Bush Temple of Music", "latitude": -87.63166847, "longitude": 41.89690293, "Shape_Leng": 0.00163166896, "Shape_Area": 1.4803e-07 }, "geometry": { "type": "Point", "coordinates": [ -87.631668469856777, 41.896902931526213 ] } },
{ "type": "Feature", "properties": { "address": "S Branch Chgo River, 19th St, SE of Lumber St", "architect": null, "date_built": null, "id": "L-248", "landmark": "12/12/2007", "name": "Pennsylania Bridge", "latitude": -87.63700354, "longitude": 41.85565852, "Shape_Leng": 0.00260513306, "Shape_Area": 1.4266e-07 }, "geometry": { "type": "Point", "coordinates": [ -87.637003535539321, 41.855658524821365 ] } },
{ "type": "Feature", "properties": { "address": "7053 N Ridge Blvd", "architect": "Architect Unknown", "date_built": "1874", "id": "L-122", "landmark": "10/16/1984", "name": "Jackson-Thomas House", "latitude": -87.68192948, "longitude": 42.01039242, "Shape_Leng": 0.00212762899, "Shape_Area": 2.6896e-07 }, "geometry": { "type": "Point", "coordinates": [ -87.681929477518736, 42.010392421090984 ] } },
{ "type": "Feature", "properties": { "address": "5131 S Michigan Av", "architect": "George Maher", "date_built": "1901", "id": "L-162", "landmark": "10/1/2003", "name": "Pate-Comiskey House", "latitude": -87.62214969, "longitude": 41.80101655, "Shape_Leng": 0.00150275212, "Shape_Area": 9.661e-08 }, "geometry": { "type": "Point", "coordinates": [ -87.622149692510902, 41.801016553204512 ] } },
{ "type": "Feature", "properties": { "address": "250 North Breakwater Access", "architect": null, "date_built": null, "id": "L-239", "landmark": "12/12/2007", "name": "Old Chicago Coast Guard Station", "latitude": -87.61019755, "longitude": 41.88764075, "Shape_Leng": 0.00120090336, "Shape_Area": 7.001e-08 }, "geometry": { "type": "Point", "coordinates": [ -87.610197552122514, 41.887640749097542 ] } },
{ "type": "Feature", "properties": { "address": "3000 W. 42nd St", "architect": "Paul Gerhardt, Jr.", "date_built": "1929", "id": "L-236", "landmark": "10/1/2003", "name": "Engine Company 65, Truck 52", "latitude": -87.73535704, "longitude": 41.80373386, "Shape_Leng": 0.00132867082, "Shape_Area": 9.437e-08 }, "geometry": { "type": "Point", "coordinates": [ -87.735357042392096, 41.803733859119937 ] } },
{ "type": "Feature", "properties": { "address": "5132 S Woodlawn Av", "architect": "Frank Lloyd Wright", "date_built": "1897", "id": "L-111", "landmark": "9/15/1971", "name": "Isidore H. Heller House", "latitude": -87.5971117, "longitude": 41.80140832, "Shape_Leng": 0.00161248879, "Shape_Area": 1.2356e-07 }, "geometry": { "type": "Point", "coordinates": [ -87.597111701104268, 41.80140832147012 ] } },
{ "type": "Feature", "properties": { "address": "15-17 S Wabash Av", "architect": "Dankmar Adler with Louis H. Sullivan", "date_built": "1881-82", "id": "L-123", "landmark": "12/8/1981", "name": "Jewelers  Building", "latitude": -87.62566717, "longitude": 41.88161747, "Shape_Leng": 0.00155241579, "Shape_Area": 9.246e-08 }, "geometry": { "type": "Point", "coordinates": [ -87.625667168609084, 41.881617469252987 ] } },
{ "type": "Feature", "properties": { "address": "2414 W Cuyler Av", "architect": "Board of Public Works", "date_built": "1899", "id": "L-228", "landmark": "10/1/2003", "name": "(Former) Engine Company 86", "latitude": -87.68922824000001, "longitude": 41.95519144, "Shape_Leng": 0.00105868307, "Shape_Area": 6.393e-08 }, "geometry": { "type": "Point", "coordinates": [ -87.689228237294628, 41.955191438928566 ] } },
{ "type": "Feature", "properties": { "address": "2433-43 N Lincoln Av", "architect": "Samuel N. Corwen", "date_built": "1914", "id": "L- 53", "landmark": "3/28/2001", "name": "Biograph Theater", "latitude": -87.64975918, "longitude": 41.92652071, "Shape_Leng": 0.00159914056, "Shape_Area": 1.5414e-07 }, "geometry": { "type": "Point", "coordinates": [ -87.649759179879382, 41.926520710135719 ] } },
{ "type": "Feature", "properties": { "address": "201 N Wells St", "architect": "Thielbard & Fugard w/ Eugene&Gwen Lux,Edgar Miller", "date_built": "1929-30", "id": "L- 03", "landmark": "1/14/2004", "name": "Trustees System Service Building", "latitude": -87.63363399000001, "longitude": 41.88604619, "Shape_Leng": 0.0014226804, "Shape_Area": 1.2332e-07 }, "geometry": { "type": "Point", "coordinates": [ -87.633633993164594, 41.886046188550274 ] } },
{ "type": "Feature", "properties": { "address": "S End of the North Breakwater,N side of Harbor Ent", "architect": "Unknown", "date_built": "1893", "id": "L- 19", "landmark": "4/9/2003", "name": "Chicago Harbor Lighthouse", "latitude": -87.59040947, "longitude": 41.88927337, "Shape_Leng": 0.00051884778, "Shape_Area": 1.597e-08 }, "geometry": { "type": "Point", "coordinates": [ -87.590409468974215, 41.889273365166687 ] } },
{ "type": "Feature", "properties": { "address": "75 E Wacker Dr", "architect": "Herbert Hugh Riddle", "date_built": "1928", "id": "L-142", "landmark": "3/7/2001", "name": "Mather Tower", "latitude": -87.6254272, "longitude": 41.88760598, "Shape_Leng": 0.00107999248, "Shape_Area": 6.618e-08 }, "geometry": { "type": "Point", "coordinates": [ -87.62542720138525, 41.88760597775628 ] } },
{ "type": "Feature", "properties": { "address": "2800 N Pine Grove Av", "architect": "Enoch Hill Turnock", "date_built": "1893", "id": "L- 54", "landmark": "10/6/1982", "name": "Brewster Apartments", "latitude": -87.64158298, "longitude": 41.93316396, "Shape_Leng": 0.00124179897, "Shape_Area": 8.612e-08 }, "geometry": { "type": "Point", "coordinates": [ -87.641582976596041, 41.933163961922709 ] } },
{ "type": "Feature", "properties": { "address": "618 W Chicago Av", "architect": "Richard E. Schmidt, Garden and Martin", "date_built": "1907-08", "id": "L-149", "landmark": "5/17/2000", "name": "Montgomery Ward & Co. Catalog House", "latitude": -87.64369542, "longitude": 41.89743687, "Shape_Leng": 0.00535177108, "Shape_Area": 1.51839e-06 }, "geometry": { "type": "Point", "coordinates": [ -87.643695415452513, 41.897436867565126 ] } },
{ "type": "Feature", "properties": { "address": "5714 N Ridge Av", "architect": "Argyle E. Robinson", "date_built": "1928", "id": "L-234", "landmark": "10/1/2003", "name": "Engine Company 59, Truck 47", "latitude": -87.66403315, "longitude": 41.98572406, "Shape_Leng": 0.00114702651, "Shape_Area": 5.941e-08 }, "geometry": { "type": "Point", "coordinates": [ -87.664033151043668, 41.98572405971575 ] } },
{ "type": "Feature", "properties": { "address": "2312-14 N Lincoln Av (S Half:1883;North Half:1887)", "architect": "Adler & Sullivan", "date_built": "1883", "id": "L-125", "landmark": "4/16/1996", "name": "Kaufmann Store and Flats", "latitude": -87.64707107, "longitude": 41.92386743, "Shape_Leng": 0.00121506915, "Shape_Area": 6.242e-08 }, "geometry": { "type": "Point", "coordinates": [ -87.647071072812452, 41.923867429195575 ] } },
{ "type": "Feature", "properties": { "address": "55 E Washington st", "architect": "Graham, Anderson, Probst & White", "date_built": "1927", "id": "L-167", "landmark": "11/6/2002", "name": "Pittsfield Building", "latitude": -87.62571629, "longitude": 41.88294695, "Shape_Leng": 0.0018524445, "Shape_Area": 1.964e-07 }, "geometry": { "type": "Point", "coordinates": [ -87.625716286946215, 41.88294695170881 ] } },
{ "type": "Feature", "properties": { "address": "4700 S. Ashland Ave", "architect": "Alfred S. Alschuler", "date_built": "1915,29,33", "id": "L-320", "landmark": "5/8/2013", "name": "Oppenheimer-Goldblatt Bros. Department Store Bldg", "latitude": -87.66560652, "longitude": 41.8083423, "Shape_Leng": 0.00250738236, "Shape_Area": 3.128e-07 }, "geometry": { "type": "Point", "coordinates": [ -87.665606516176069, 41.808342300337358 ] } },
{ "type": "Feature", "properties": { "address": "1440 W Cortland St", "architect": "John Ernst Ericson. Bridgehse reconst. 1982", "date_built": "1902", "id": "L- 76", "landmark": "7/24/1991", "name": "Cortland Street Drawbridge", "latitude": -87.66431155, "longitude": 41.91691727, "Shape_Leng": 0.00420085839, "Shape_Area": 8.7677e-07 }, "geometry": { "type": "Point", "coordinates": [ -87.664311553377772, 41.916917264868566 ] } },
{ "type": "Feature", "properties": { "address": "4950 S Chicago Beach Dr", "architect": "Robert DeGolyer & Charles Morgan", "date_built": "1927-29", "id": "L- 24", "landmark": "1/12/1993", "name": "Powhatan Apartments", "latitude": -87.58447185, "longitude": 41.8046084, "Shape_Leng": 0.00146973082, "Shape_Area": 1.2734e-07 }, "geometry": { "type": "Point", "coordinates": [ -87.584471851866127, 41.804608404428308 ] } },
{ "type": "Feature", "properties": { "address": "5624 N Newark Av", "architect": "addit 1863, Architects Unknown", "date_built": "1833", "id": "L-153", "landmark": "5/11/1988", "name": "Noble-Seymour-Crippen House", "latitude": -87.79584731, "longitude": 41.98361513, "Shape_Leng": 0.00368883942, "Shape_Area": 7.2698e-07 }, "geometry": { "type": "Point", "coordinates": [ -87.795847309222481, 41.983615135040651 ] } },
{ "type": "Feature", "properties": { "address": "South Lake Shore Dr and 63rd St", "architect": "South Park Commission Architects", "date_built": "1919", "id": "L-221", "landmark": "12/8/2004", "name": "63rd Street Bathing Pavilion", "latitude": -87.57371255, "longitude": 41.78144144, "Shape_Leng": 0.00462988236, "Shape_Area": 6.6429e-07 }, "geometry": { "type": "Point", "coordinates": [ -87.573712548298275, 41.781441436553187 ] } },
{ "type": "Feature", "properties": { "address": "29 E Madison st", "architect": "D.H. Burnham & Co.", "date_built": "1904", "id": "L-112", "landmark": "9/27/2000", "name": "Heyworth Building", "latitude": -87.62668738000001, "longitude": 41.88185956, "Shape_Leng": 0.001764578, "Shape_Area": 1.4454e-07 }, "geometry": { "type": "Point", "coordinates": [ -87.626687384294598, 41.881859558754599 ] } },
{ "type": "Feature", "properties": { "address": "2750 N Lakeview Ave", "architect": "Egerton Swartwout", "date_built": "1924-26", "id": "L- 01", "landmark": "10/1/2003", "name": "Elks National Memorial Headquarters Building", "latitude": -87.63989765, "longitude": 41.93228562, "Shape_Leng": 0.00350396826, "Shape_Area": 7.6449e-07 }, "geometry": { "type": "Point", "coordinates": [ -87.639897648644848, 41.932285621350445 ] } },
{ "type": "Feature", "properties": { "address": "208 South LaSalle St", "architect": null, "date_built": null, "id": "L-251", "landmark": "12/12/2007", "name": "Continental And Commercial National Bank Building", "latitude": -87.63301185, "longitude": 41.87907898, "Shape_Leng": 0.00328250279, "Shape_Area": 5.3811e-07 }, "geometry": { "type": "Point", "coordinates": [ -87.633011853791132, 41.879078981664101 ] } },
{ "type": "Feature", "properties": { "address": "5400 N Clark St", "architect": null, "date_built": null, "id": "L-263", "landmark": "7/9/2008", "name": "(Former) Swedish American State Bank Bldg", "latitude": -87.66855143, "longitude": 41.97997886, "Shape_Leng": 0.00075953227, "Shape_Area": 2.729e-08 }, "geometry": { "type": "Point", "coordinates": [ -87.668551429744085, 41.979978862278564 ] } },
{ "type": "Feature", "properties": { "address": "120 E Bellevue Pl", "architect": "McKim, Meade & White", "date_built": "1892", "id": "L- 31", "landmark": "5/9/1973", "name": "Bryan Lathrop House", "latitude": -87.62506376, "longitude": 41.90187971, "Shape_Leng": 0.0011652693, "Shape_Area": 8.095e-08 }, "geometry": { "type": "Point", "coordinates": [ -87.625063762070212, 41.901879714715328 ] } },
{ "type": "Feature", "properties": { "address": "9326 S Pleasant Av", "architect": "Frank Lloyd Wright", "date_built": "1901", "id": "L- 42", "landmark": "6/16/1994", "name": "Jessie and William Adams House", "latitude": -87.67019015, "longitude": 41.72399695, "Shape_Leng": 0.00181090703, "Shape_Area": 1.7333e-07 }, "geometry": { "type": "Point", "coordinates": [ -87.670190147140602, 41.723996948855877 ] } },
{ "type": "Feature", "properties": { "address": "333 N Michigan Av", "architect": "Holabird & Roche/Holabird & Root", "date_built": "1928", "id": "L-197", "landmark": "2/7/1997", "name": "333 North Michigan Building", "latitude": -87.62420054, "longitude": 41.88780778, "Shape_Leng": 0.00155313983, "Shape_Area": 1.2297e-07 }, "geometry": { "type": "Point", "coordinates": [ -87.62420053818353, 41.887807782335216 ] } },
{ "type": "Feature", "properties": { "address": "509 W Wrightwood Av", "architect": "Adolph Cudell & Arthur Hercz", "date_built": "1894-96", "id": "L- 82", "landmark": "3/9/2005", "name": "August Dewes House", "latitude": -87.64176889, "longitude": 41.93027815, "Shape_Leng": 0.00102186024, "Shape_Area": 4.693e-08 }, "geometry": { "type": "Point", "coordinates": [ -87.641768889521316, 41.93027815385242 ] } },
{ "type": "Feature", "properties": { "address": "850 E 58th St", "architect": "Pond & Pond", "date_built": "1907", "id": "L- 46", "landmark": "4/15/1995", "name": "American School of Correspondence", "latitude": -87.60410363, "longitude": 41.78975392, "Shape_Leng": 0.00154425926, "Shape_Area": 1.3401e-07 }, "geometry": { "type": "Point", "coordinates": [ -87.604103628447277, 41.789753921992208 ] } },
{ "type": "Feature", "properties": { "address": "35th St and Cottage Grove Av", "architect": "Leonard W. Volk", "date_built": "1881", "id": "L- 84", "landmark": "9/28/1977", "name": "Stephen A. Douglas Memorial", "latitude": -87.60840332, "longitude": 41.83162805, "Shape_Leng": 0.00399429525, "Shape_Area": 8.4977e-07 }, "geometry": { "type": "Point", "coordinates": [ -87.608403314913204, 41.831628053578051 ] } },
{ "type": "Feature", "properties": { "address": "636 S Michigan Ave", "architect": "Marshall & Fox", "date_built": "1910", "id": "L- 18", "landmark": "4/29/1998", "name": "Blackstone Hotel", "latitude": -87.62477544, "longitude": 41.87335142, "Shape_Leng": 0.00170558795, "Shape_Area": 1.3845e-07 }, "geometry": { "type": "Point", "coordinates": [ -87.624775439237169, 41.873351422081875 ] } },
{ "type": "Feature", "properties": { "address": "1244 W Carmen av", "architect": "Bruce Goff", "date_built": "1948", "id": "L- 52", "landmark": "12/9/1992", "name": "Myron Bachman House", "latitude": -87.66168184, "longitude": 41.9748882, "Shape_Leng": 0.00112532433, "Shape_Area": 6.113e-08 }, "geometry": { "type": "Point", "coordinates": [ -87.661681844416535, 41.974888204535667 ] } },
{ "type": "Feature", "properties": { "address": "1100 E Hyde Park Blvd", "architect": "Alfred S. Alschuler", "date_built": "1924", "id": "L-124", "landmark": "6/9/1977", "name": "K.A.M. Isaiah Israel Temple", "latitude": -87.59861639, "longitude": 41.80282583, "Shape_Leng": 0.00346016262, "Shape_Area": 5.104e-07 }, "geometry": { "type": "Point", "coordinates": [ -87.59861639460307, 41.80282582956562 ] } },
{ "type": "Feature", "properties": { "address": "1419 W Blackhawk St", "architect": "William Carbys Zimmerman", "date_built": "1912-14", "id": "L-168", "landmark": "7/29/2003", "name": "Pulaski Park Fieldhouse", "latitude": -87.66328365, "longitude": 41.90648537, "Shape_Leng": 0.00696781, "Shape_Area": 7.1009e-07 }, "geometry": { "type": "Point", "coordinates": [ -87.663283649159695, 41.906485370580548 ] } },
{ "type": "Feature", "properties": { "address": "4646 N Hermitage Av", "architect": "Unknown", "date_built": "1886", "id": "L- 34", "landmark": "10/4/2006", "name": "Carl Sandburg House", "latitude": -87.67298946, "longitude": 41.96657208, "Shape_Leng": 0.0014895302, "Shape_Area": 8.334e-08 }, "geometry": { "type": "Point", "coordinates": [ -87.672989456894044, 41.966572081626666 ] } },
{ "type": "Feature", "properties": { "address": "Wacker Dr at Wabash Av", "architect": "Lorado Taft & Leonrd Crunelle, Sculptors", "date_built": "1936-41", "id": "L-206", "landmark": "9/15/1971", "name": "Heald Square Monument", "latitude": -87.62692807000001, "longitude": 41.88700528, "Shape_Leng": 0.00158637685, "Shape_Area": 1.231e-07 }, "geometry": { "type": "Point", "coordinates": [ -87.626928067867738, 41.887005279986816 ] } },
{ "type": "Feature", "properties": { "address": "N Branch Chgo River, Cherry Av, S of North Ave", "architect": null, "date_built": null, "id": "L-249", "landmark": "12/12/2007", "name": "Milwaukee & St Paul Bridge", "latitude": -87.65552219, "longitude": 41.91036873, "Shape_Leng": 0.00138233979, "Shape_Area": 4.497e-08 }, "geometry": { "type": "Point", "coordinates": [ -87.655522188771215, 41.910368729218582 ] } },
{ "type": "Feature", "properties": { "address": "33 W Kinzie St", "architect": "Henry Ives Cobb", "date_built": "1895", "id": "L- 70", "landmark": "7/25/2001", "name": "Chicago Varnish Company Building", "latitude": -87.62934802, "longitude": 41.88899569, "Shape_Leng": 0.00084973135, "Shape_Area": 4.305e-08 }, "geometry": { "type": "Point", "coordinates": [ -87.62934802129638, 41.888995694664004 ] } },
{ "type": "Feature", "properties": { "address": "159 N Dearborn St", "architect": "Top Addit 1920;Holabird & Roche", "date_built": "1907", "id": "L-158", "landmark": "5/9/1984", "name": "Oliver Building", "latitude": -87.62925372, "longitude": 41.88493929, "Shape_Leng": 0.0008876617, "Shape_Area": 4.309e-08 }, "geometry": { "type": "Point", "coordinates": [ -87.629253720253701, 41.884939294862988 ] } },
{ "type": "Feature", "properties": { "address": "4021 S State St", "architect": "Edward G. McClellan add:1927,unknown,remod:1992-93", "date_built": "1922", "id": "L- 30", "landmark": "3/29/2006", "name": "Roberts Temple Church of God in Christ Building", "latitude": -87.62591133, "longitude": 41.82120993, "Shape_Leng": 0.00145097827, "Shape_Area": 8.032e-08 }, "geometry": { "type": "Point", "coordinates": [ -87.625911333388231, 41.821209927057573 ] } },
{ "type": "Feature", "properties": { "address": "3624 S Dr Martin Luther King Jr Dr", "architect": "Joseph A. Thain", "date_built": "1889", "id": "L-208", "landmark": "10/2/1995", "name": "Ida B. Wells-Barnett House", "latitude": -87.61773209, "longitude": 41.82859199, "Shape_Leng": 0.00126890371, "Shape_Area": 4.545e-08 }, "geometry": { "type": "Point", "coordinates": [ -87.617732088431495, 41.828591989859895 ] } },
{ "type": "Feature", "properties": { "address": "632 N Dearborn St", "architect": "Henry Ives Cobb", "date_built": "1892", "id": "L- 96", "landmark": "2/26/1997", "name": "Former Chicago Historical Society Building", "latitude": -87.63006344, "longitude": 41.89349504, "Shape_Leng": 0.00147925658, "Shape_Area": 1.3175e-07 }, "geometry": { "type": "Point", "coordinates": [ -87.63006344205624, 41.893495044072573 ] } },
{ "type": "Feature", "properties": { "address": "20 N Wacker Dr", "architect": "Graham, Anderson, Probst & White", "date_built": "1927-29", "id": "L- 72", "landmark": "2/5/1998", "name": "Civic Opera Building", "latitude": -87.637513, "longitude": 41.88253375, "Shape_Leng": 0.0034412799, "Shape_Area": 7.2932e-07 }, "geometry": { "type": "Point", "coordinates": [ -87.637513003702338, 41.882533748719204 ] } },
{ "type": "Feature", "properties": { "address": "2117-39 N Milwaukee Av / 2117-39 N Rockwell St", "architect": "Fridstein & Co.", "date_built": "1925-26", "id": "L- 75", "landmark": "7/10/2002", "name": "Congress Theater", "latitude": -87.69221314000001, "longitude": 41.92031653, "Shape_Leng": 0.00322477219, "Shape_Area": 5.9161e-07 }, "geometry": { "type": "Point", "coordinates": [ -87.692213144063928, 41.920316529345712 ] } },
{ "type": "Feature", "properties": { "address": "42 N Central Av", "architect": "Frank Llyod Wright", "date_built": "1903", "id": "L-204", "landmark": "3/30/1984", "name": "John Jacob Walser House", "latitude": -87.7653739, "longitude": 41.8815282, "Shape_Leng": 0.00158392717, "Shape_Area": 8.984e-08 }, "geometry": { "type": "Point", "coordinates": [ -87.765373898882785, 41.881528196207526 ] } },
{ "type": "Feature", "properties": { "address": "4200 W Irving Park Rd", "architect": "Architect Unknown", "date_built": "1889", "id": "L-211", "landmark": "12/5/1990", "name": "Whistle Stop Inn", "latitude": -87.7326763, "longitude": 41.95381757, "Shape_Leng": 0.00054891012, "Shape_Area": 1.609e-08 }, "geometry": { "type": "Point", "coordinates": [ -87.732676298703737, 41.953817571750484 ] } },
{ "type": "Feature", "properties": { "address": "9117 S Commercial Av", "architect": null, "date_built": null, "id": "L-260", "landmark": "7/9/2008", "name": "(Former) Calumet National Bank Bldg", "latitude": -87.55084594, "longitude": 41.72951124, "Shape_Leng": 0.00116512273, "Shape_Area": 3.541e-08 }, "geometry": { "type": "Point", "coordinates": [ -87.550845943287726, 41.72951123926731 ] } },
{ "type": "Feature", "properties": { "address": "6901 S Oglesby Av", "architect": "Paul Frederick Olsen", "date_built": "1928-29", "id": "L-265", "landmark": "9/10/2008", "name": "6901 Oglesby Cooperative Apartment Building", "latitude": -87.56778516, "longitude": 41.76959911, "Shape_Leng": 0.00211280916, "Shape_Area": 2.62e-07 }, "geometry": { "type": "Point", "coordinates": [ -87.567785155765705, 41.769599107321774 ] } },
{ "type": "Feature", "properties": { "address": "5917 N Magnolia Av", "architect": "Walter Burley Griffin", "date_built": "1908", "id": "L-100", "landmark": "6/28/2000", "name": "Gauler Twin House", "latitude": -87.66119005, "longitude": 41.9896117, "Shape_Leng": 0.00109743662, "Shape_Area": 4.187e-08 }, "geometry": { "type": "Point", "coordinates": [ -87.661190054471476, 41.989611700824291 ] } },
{ "type": "Feature", "properties": { "address": "63 E Adams", "architect": "Richard E. Schmidt and Hugh M.G. Garden", "date_built": "1904", "id": "L- 64", "landmark": "1/21/1982", "name": "Chapin and Gore Building", "latitude": -87.62561478000001, "longitude": 41.87932732, "Shape_Leng": 0.00174399265, "Shape_Area": 1.4178e-07 }, "geometry": { "type": "Point", "coordinates": [ -87.625614782113331, 41.879327319598055 ] } },
{ "type": "Feature", "properties": { "address": "5921 N Magnolia Av", "architect": "Walter Burley Griffin", "date_built": "1908", "id": "L-101", "landmark": "6/28/2000", "name": "Gauler Twin House", "latitude": -87.66119344000001, "longitude": 41.98970697, "Shape_Leng": 0.00111234782, "Shape_Area": 4.526e-08 }, "geometry": { "type": "Point", "coordinates": [ -87.661193435796505, 41.989706973693018 ] } },
{ "type": "Feature", "properties": { "address": "758 W North Av", "architect": "Frederick Ahlschlager", "date_built": "1887", "id": "L-216", "landmark": "7/25/2001", "name": "Yondorf Block and Hall", "latitude": -87.64786908000001, "longitude": 41.91119342, "Shape_Leng": 0.00188341732, "Shape_Area": 1.9661e-07 }, "geometry": { "type": "Point", "coordinates": [ -87.647869077675864, 41.911193415591505 ] } },
{ "type": "Feature", "properties": { "address": "3963 W Belmont Av", "architect": "Alfred S. Alschuler", "date_built": "1924-26", "id": "L- 32", "landmark": "3/29/2006", "name": "Florsheim Shoe Company Building", "latitude": -87.7265989, "longitude": 41.93861001, "Shape_Leng": 0.00378524832, "Shape_Area": 7.6821e-07 }, "geometry": { "type": "Point", "coordinates": [ -87.726598898354069, 41.938610007388846 ] } },
{ "type": "Feature", "properties": { "address": "626 N Michigan av", "architect": "Philip B. Maher", "date_built": "1928", "id": "L-213", "landmark": "10/2/1991", "name": "Woman's Athletic Club", "latitude": -87.62460102, "longitude": 41.89358116, "Shape_Leng": 0.00114897587, "Shape_Area": 8.237e-08 }, "geometry": { "type": "Point", "coordinates": [ -87.6246010222319, 41.893581163027633 ] } },
{ "type": "Feature", "properties": { "address": "Calumet River, 126th St, W of Torrence Av", "architect": "James Peterson", "date_built": "1967-68", "id": "L-242", "landmark": "12/12/2007", "name": "Chicago & Western Indiana  Railroad Bridge", "latitude": -87.55896435, "longitude": 41.66934061, "Shape_Leng": 0.00264561936, "Shape_Area": 1.7654e-07 }, "geometry": { "type": "Point", "coordinates": [ -87.558964346922579, 41.669340614240646 ] } },
{ "type": "Feature", "properties": { "address": "1304 W  Washington Blvd", "architect": "Otis L. Wheelock", "date_built": "1869", "id": "L-106", "landmark": "1/12/1993", "name": "Abraham Groesbeck House", "latitude": -87.66004766, "longitude": 41.88329082, "Shape_Leng": 0.00126724128, "Shape_Area": 6.829e-08 }, "geometry": { "type": "Point", "coordinates": [ -87.660047664034806, 41.883290824458136 ] } },
{ "type": "Feature", "properties": { "address": "Graceland Cemetery, 4011 N Clark St", "architect": "Louis H. Sullivan", "date_built": "1890", "id": "L-103", "landmark": "3/10/1971", "name": "Getty Tomb", "latitude": -87.66118862, "longitude": 41.96123007, "Shape_Leng": 0.00084096226, "Shape_Area": 3.41e-08 }, "geometry": { "type": "Point", "coordinates": [ -87.66118862071059, 41.961230074801982 ] } },
{ "type": "Feature", "properties": { "address": "78 E Washington St", "architect": "Shepley, Rutan and Coolidge", "date_built": "1897", "id": "L- 68", "landmark": "11/5/1976", "name": "Chicago Public Library/Cultural Center", "latitude": -87.62499587000001, "longitude": 41.88386466, "Shape_Leng": 0.00330419842, "Shape_Area": 6.2745e-07 }, "geometry": { "type": "Point", "coordinates": [ -87.624995865645715, 41.88386466208447 ] } },
{ "type": "Feature", "properties": { "address": "S Fork of Chicago River at W Levee & W Fuller Sts", "architect": null, "date_built": "1845-48", "id": "L-119", "landmark": "5/9/1996", "name": "Illinois and Michigan Canal", "latitude": -87.66461646, "longitude": 41.84265823, "Shape_Leng": 0.01053901442, "Shape_Area": 3.93351e-06 }, "geometry": { "type": "Point", "coordinates": [ -87.664616461788995, 41.842658233681192 ] } },
{ "type": "Feature", "properties": { "address": "7059 N Olcott Av", "architect": "Bruce Goff", "date_built": "1938-39", "id": "L-199", "landmark": "12/9/1992", "name": "Charles Turzak House", "latitude": -87.81325194, "longitude": 42.00956308, "Shape_Leng": 0.00135747748, "Shape_Area": 7.441e-08 }, "geometry": { "type": "Point", "coordinates": [ -87.813251935778368, 42.009563078402813 ] } },
{ "type": "Feature", "properties": { "address": "3601 N Milwaukee Av", "architect": "Dwight H. Perkins", "date_built": "1910", "id": "L-180", "landmark": "12/7/1979", "name": "Carl Schurz High School", "latitude": -87.73563931, "longitude": 41.9472703, "Shape_Leng": 0.00758320199, "Shape_Area": 3.36351e-06 }, "geometry": { "type": "Point", "coordinates": [ -87.735639307414118, 41.947270295102825 ] } },
{ "type": "Feature", "properties": { "address": "6204 S Green St", "architect": "Paul Gerhardt, Jr.", "date_built": "1929", "id": "L-237", "landmark": "10/1/2003", "name": "Engine Company 84, Truck 51", "latitude": -87.646397, "longitude": 41.78126631, "Shape_Leng": 0.00131205337, "Shape_Area": 9.187e-08 }, "geometry": { "type": "Point", "coordinates": [ -87.646396997372847, 41.781266311213429 ] } },
{ "type": "Feature", "properties": { "address": "600 N Wabash Av", "architect": "Huehl & Schmid", "date_built": "1912", "id": "L-145", "landmark": "6/27/2001", "name": "Medinah Temple", "latitude": -87.62714151, "longitude": 41.89288778, "Shape_Leng": 0.00230421205, "Shape_Area": 3.2524e-07 }, "geometry": { "type": "Point", "coordinates": [ -87.627141514194207, 41.892887782180424 ] } },
{ "type": "Feature", "properties": { "address": "8120 S Ashland Av", "architect": "Argyle E. Robinson", "date_built": "1928-29", "id": "L-235", "landmark": "10/1/2003", "name": "Engine Company 129, Truck 50", "latitude": -87.66370577000001, "longitude": 41.74600513, "Shape_Leng": 0.00106370334, "Shape_Area": 5.421e-08 }, "geometry": { "type": "Point", "coordinates": [ -87.663705771494307, 41.74600513308652 ] } },
{ "type": "Feature", "properties": { "address": "1104 S Wabash Av", "architect": "William LeBaron Jenney", "date_built": "1891", "id": "L-135", "landmark": "6/10/1996", "name": "Ludington Building", "latitude": -87.62635497, "longitude": 41.86900585, "Shape_Leng": 0.00187778959, "Shape_Area": 2.0076e-07 }, "geometry": { "type": "Point", "coordinates": [ -87.626354967807103, 41.869005849024795 ] } },
{ "type": "Feature", "properties": { "address": "2703 W Logan Blvd", "architect": "George W. Maher", "date_built": "1907", "id": "L-172", "landmark": "12/1/1993", "name": "John Rath House", "latitude": -87.69530973000001, "longitude": 41.92789833, "Shape_Leng": 0.0013474285, "Shape_Area": 9.898e-08 }, "geometry": { "type": "Point", "coordinates": [ -87.695309734935421, 41.927898331975818 ] } },
{ "type": "Feature", "properties": { "address": "10410 S Hoyne Av", "architect": "Frank Lloyd Wright", "date_built": "1917", "id": "L- 47", "landmark": "7/13/1994", "name": "American System-Built Houses", "latitude": -87.67464799, "longitude": 41.70419675, "Shape_Leng": 0.00126555658, "Shape_Area": 8.316e-08 }, "geometry": { "type": "Point", "coordinates": [ -87.674647988960018, 41.704196745994381 ] } },
{ "type": "Feature", "properties": { "address": "6016 S Ingleside Dr", "architect": "Arch ?, recon:1929;O F Johnson Add:1964;E D Dart", "date_built": "1890-1929", "id": "L-192", "landmark": "12/1/1993", "name": "Lorado Taft's Midway Studios", "latitude": -87.6032052, "longitude": 41.78552641, "Shape_Leng": 0.00206904192, "Shape_Area": 2.6752e-07 }, "geometry": { "type": "Point", "coordinates": [ -87.603205202420938, 41.785526409248561 ] } },
{ "type": "Feature", "properties": { "address": "2401 S Wabash Av", "architect": "Henry F. Starbuck", "date_built": "1892", "id": "L-169", "landmark": "8/31/1977", "name": "Quinn Chapel", "latitude": -87.62507641000001, "longitude": 41.84907304, "Shape_Leng": 0.0012728663, "Shape_Area": 8.881e-08 }, "geometry": { "type": "Point", "coordinates": [ -87.625076405281831, 41.849073044309783 ] } },
{ "type": "Feature", "properties": { "address": "660 N Rush St", "architect": "Frederick & Edward Baumann", "date_built": "1875", "id": "L-143", "landmark": "10/6/2005", "name": "McCormick Double House", "latitude": -87.62572114, "longitude": 41.89427876, "Shape_Leng": 0.00090725112, "Shape_Area": 4.187e-08 }, "geometry": { "type": "Point", "coordinates": [ -87.625721143634053, 41.894278755372291 ] } },
{ "type": "Feature", "properties": { "address": "444 N LaSalle St", "architect": null, "date_built": null, "id": "L-254", "landmark": "12/12/2007", "name": "Veseman Building", "latitude": -87.63288949, "longitude": 41.89047915, "Shape_Leng": 0.00063814838, "Shape_Area": 2.317e-08 }, "geometry": { "type": "Point", "coordinates": [ -87.632889486674301, 41.890479153048766 ] } },
{ "type": "Feature", "properties": { "address": "1425 W Fullerton Av", "architect": null, "date_built": null, "id": "L-261", "landmark": "7/9/2008", "name": "(Former) Fullerton State Bank Bldg", "latitude": -87.66435202, "longitude": 41.92494553, "Shape_Leng": 0.00101287482, "Shape_Area": 5.843e-08 }, "geometry": { "type": "Point", "coordinates": [ -87.664352022811656, 41.924945527858803 ] } },
{ "type": "Feature", "properties": { "address": "4315 S Wabash Av", "architect": "Walter T. Bailey,1946 Add. Kocher,Buss & DeKlerk", "date_built": "1939", "id": "L- 79", "landmark": "10/5/1994", "name": "First Church of Deliverance", "latitude": -87.62415888, "longitude": 41.81588261, "Shape_Leng": 0.00173733999, "Shape_Area": 1.6306e-07 }, "geometry": { "type": "Point", "coordinates": [ -87.624158884153772, 41.815882608940214 ] } },
{ "type": "Feature", "properties": { "address": "1365 N Astor st", "architect": "Adler and Sullivan, Frank Lloyd Wright", "date_built": "1891", "id": "L- 65", "landmark": "8/20/1972", "name": "James Charnley House", "latitude": -87.62747782, "longitude": 41.90764802, "Shape_Leng": 0.00083338279, "Shape_Area": 4.191e-08 }, "geometry": { "type": "Point", "coordinates": [ -87.627477823058044, 41.907648017295173 ] } },
{ "type": "Feature", "properties": { "address": "1515-1535 E 53rd St", "architect": null, "date_built": null, "id": "L-266", "landmark": null, "name": "(Former) Hyde Park Bank", "latitude": -87.58818688, "longitude": 41.79932571, "Shape_Leng": 0.00175011628, "Shape_Area": 1.4972e-07 }, "geometry": { "type": "Point", "coordinates": [ -87.588186881322471, 41.799325710600129 ] } },
{ "type": "Feature", "properties": { "address": "4726 S Dr Martin Luther King Jr Dr", "architect": "Henry L. Newhouse", "date_built": "1903", "id": "L- 88", "landmark": "3/21/1979", "name": "Melissa Ann Elam House", "latitude": -87.61720439, "longitude": 41.80852977, "Shape_Leng": 0.0013671636, "Shape_Area": 7.497e-08 }, "geometry": { "type": "Point", "coordinates": [ -87.617204394897456, 41.808529769152926 ] } },
{ "type": "Feature", "properties": { "address": "Exchange Av (4150S) at Peoria St (900W)", "architect": "Burnham and Root", "date_built": "1875", "id": "L-201", "landmark": "2/24/1972", "name": "Union Stock Yard Gate", "latitude": -87.64868075, "longitude": 41.81862876, "Shape_Leng": 0.00249436314, "Shape_Area": 1.4811e-07 }, "geometry": { "type": "Point", "coordinates": [ -87.648680752852414, 41.818628764805183 ] } },
{ "type": "Feature", "properties": { "address": "4829 W Irving Park Rd", "architect": "George Grant Elmslie & Herman V. von Holst", "date_built": "1926", "id": "L-163", "landmark": "3/18/1987", "name": "Peoples Gas-Irving Park Neighborhood Store", "latitude": -87.74890384, "longitude": 41.95309429, "Shape_Leng": 0.0010428472, "Shape_Area": 6.202e-08 }, "geometry": { "type": "Point", "coordinates": [ -87.748903839863686, 41.953094294105227 ] } },